,city,comments,country,date posted,datetime,duration (hours/min),duration (seconds),latitude,longitude,shape,state
0,san marcos,This event took place in early fall around 1949-50. It occurred after a Boy Scout meeting in the Baptist Church. The Baptist Church sit,us,4/27/2004,10/10/1949 20:30,45 minutes,2700,29.8830556,-97.94111109999999,cylinder,tx
1,lackland afb,1949 Lackland AFB&#44 TX.  Lights racing across the sky &amp; making 90 degree turns on a dime.,,12/16/2005,10/10/1949 21:00,1-2 hrs,7200,29.38421,-98.581082,light,tx
2,chester (uk/england),Green/Orange circular disc over Chester&#44 England,gb,1/21/2008,10/10/1955 17:00,20 seconds,20,53.2,-2.916667,circle,
3,edna,My older brother and twin sister were leaving the only Edna theater at about 9 PM&#44...we had our bikes and I took a different route home,us,1/17/2004,10/10/1956 21:00,1/2 hour,20,28.9783333,-96.64583329999999,circle,tx
479,pikeville,SEVENTY SOME  FLYING DISK OBSERVED IN  1950,us,4/16/2005,10/1/1950 11:00,hr,600,37.4791667,-82.51888890000001,disk,ky
480,fukuoka (japan),UFO seen by multiple U. S. military personnel; F-86 intercept.,,12/7/2006,10/1/1952 03:30,about 20 mins,1200,33.590355,130.401716,disk,
481,kansas city,1952 daylight sighting of multiple discs in formation,us,10/31/2008,10/1/1952 12:00,90 sec.,90,39.0997222,-94.5783333,disk,mo
482,flatwoods,I saw the craft go across the horizon.  It appeared to be on fire&#44 I first thought it was a plane going down.  It landed near a farm.,us,4/12/2013,10/1/1954 19:00,1 minute,60,38.7230556,-80.65,circle,wv
483,mono lake (area),NO KNOWN AIRCRAFT (1955 and maybe today) COULD MAKE SUCH A SPEEDY 360 DEGREE CIRCLE MANUVER&#44 WITH NO SOUND &#33,,3/19/2009,10/1/1955 22:00,five seconds+/-,5,38.007059,-119.01225900000001,circle,ca
484,newport,Disk with glass center section&#44 and flames behind the glass,us,4/16/2005,10/1/1956 19:00,5 minutes,300,43.3652778,-72.17388890000001,rectangle,nh
485,nelchina (near),This incident occurred about October of 1956 or &#8216;57. At the time&#44 I was Assistant station manager for a major airline in Anchorage as,us,12/7/2006,10/1/1957 16:00,3 minutes maximum,180,61.9919444,-146.76861110000002,unknown,ak
486,paterson,Formation of approximately 8 light gray metallic disks silently crossing the night sky around October 1957 in northern NJ,us,4/16/2005,10/1/1957 21:00,10 seconds,10,40.9166667,-74.17222220000001,disk,nj
487,northeast cape afs,Radar sighting and filming,,1/28/1999,10/1/1957 22:00,10-15min,900,70.292489,-161.903334,,ak
488,jacksonville,Late 1959&#44 bright lights from a hovering object of unknown shape making a zed-zid zed-zid electrical sound.,us,4/16/2005,10/1/1959 19:00,1 minute,60,39.7338889,-90.22888890000002,unknown,il
1704,eklutna,Two men approached by a cigar-shaped object in the night sky.,us,2/18/2001,10/15/1936 17:00,3 minutes.,180,61.4580556,-149.3622222,cigar,ak
1705,owensboro,Low-flying silver object seen on a clear day near mid-day.,us,4/18/2012,10/15/1943 11:00,30 mins.,1800,37.7741667,-87.1133333,rectangle,ky
1706,baltimore,It was around 8:PM and I was walking home&#44it was a full moon but something made me lookup&#44 there was no noise&#44 but an object came in fr,us,3/4/2008,10/15/1949 20:00,2-3 minutes,180,39.2902778,-76.6125,cigar,md
1707,sandy hook/highlands,Triangles over New York Harbor 1950,,10/30/2006,10/15/1950 15:00,5 minutes,300,40.443164,-73.989861,triangle,nj
1708,richland,Night sighting of seven large luminous UFOs flying in &quot;V&quot; formation,us,11/21/2010,10/15/1952 21:00,5 seconds,5,46.2858333,-119.28333329999998,circle,wa
1709,edmonton (southwest of) (canada),Good evening folks---What I am about to discribe is what I saw back in 1952&#44in an area that is about 75 to 80 miles southwest of the ci,ca,1/17/2004,10/15/1952 24:00,approx. 2 min.,120,53.55,-113.5,cylinder,ab
1710,mauriceville,My father was a WWW1 Vet. and loved hunting. The year was round 1953.We lived in a town of 300 people in southeast tex. Dad would take,us,11/4/2002,10/15/1953 14:00,5 min.,300,30.2033333,-93.8661111,disk,tx
1711,blanco,We saw a silver football&#44 motionless in the sky; stopped &#44 looked about 3-5 mins. and resumed the trip.,us,4/27/2004,10/15/1954 16:30,3-5 mins,300,30.0977778,-98.42111109999999,other,tx
1712,manistee,Saucer shaped&#44 moved north to south directly above the street&#44 no sound&#44 moon was to the east,us,1/21/2008,10/15/1954 21:30,8 seconds,8,44.2444444,-86.3241667,circle,mi
1713,rhinebeck,This very distant star-like point of light came very slowly up over the treeline from the Southwest&#44 stopped.,us,7/19/2010,10/15/1955 20:00,40 minutes,2400,41.9266667,-73.91305559999999,light,ny
1714,mechra bel ksire (morocco),Air Defense radar reflected an object with great speed and maneuverability east of Giralter north of the African coast initially headin,,4/16/2005,10/15/1956 01:00,approx. 5 minutes,300,34.56,-5.95,unknown,
1715,mt. vernon,Clear night observation of lumenescent object leaving a trail from east to north.,,7/11/2000,10/15/1956 21:30,7 to 8 seconds,8,37.932266,-87.895027,disk,in
1716,new york city (queens),tall unidentified being enters home - N.Y.C. 1957,us,3/21/2003,10/15/1957 02:00,2x3 hrs,10800,40.7141667,-74.0063889,,ny
1717,houston (ellington afb),5 to 6&quot; diameter light&#44 extremely fast&#44 silent&#44 made an impossible inside 45 degree turn&#44 and sped away horizontally.,us,9/17/2000,10/15/1957 20:30,3 seconds,3,29.7630556,-95.3630556,light,tx
1718,commerce city (n. of denver),A lot of methane gas in area,us,9/19/2002,10/15/1957 22:00,10 min.,600,39.8083333,-104.93333329999999,fireball,co
1719,marysville,UFO  Over  Golf Course,us,4/27/2007,10/15/1959 00:00,1:15,75,48.0519444,-122.1758333,other,wa
2280,four states,MYSTERIOUS RED LIGHTS  IN NORTHERN WEST VIRGINIA,us,3/31/2008,10/16/1959 22:30,10 minutes,600,39.4797222,-80.31,sphere,wv
3088,st. paul,A dull-orange craft sped southbound at low altitude and high speed toward the general direction of the airport.,us,3/16/2000,10/20/1958 21:00,2 seconds,2,44.9444444,-93.0930556,other,mn
4428,terrebonne,Piercing&#44 shrill tone.,us,8/5/2012,10/25/1958 20:00,1-2 minutes,120,44.3530556,-121.17666670000001,unknown,or
5413,riverside,Chicago suburbs&#44 strange lights and figures; close contact with figures. 500 Lights On Object0: Yes,us,4/27/2007,10/30/1958 01:00,10 minutes (?),600,41.835,-87.8227778,light,il
5636,new orleans,20+ ovals flying over New Orleans,us,9/2/2005,10/31/1953 19:00,seconds,2,29.9544444,-90.075,oval,la
6020,stanley (near) (canada),This is a true story as given to me,ca,4/16/2005,10/3/1955 06:00,2 hours,7200,55.416667,-104.55,disk,nb
6414,st. paul,A bright light was apparently chased by several military jets.,us,3/16/2000,10/5/1957 19:00,45 secs,45,44.9444444,-93.0930556,light,mn
7200,west covina,Brilliant green meteor heading north west from view in California near L.A.,us,1/22/2004,10/9/1955 18:00,4 sec,4,34.09,-117.88944440000002,,ca
7407,conroe,The date was early 1947 before Arnold&#39s &quot;flying saucers&quot;.  I was ten years old&#44 ridding in the front seat of our car next to the passan,us,4/16/2005,1/10/1947 20:00,3 to4 sec.,4,30.3116667,-95.4558333,other,tx
7408,south san francisco,Its was approximately 6:30pm&#44 I was sitting in frontroom watching TV&#44 when screen showed sometype of interference.  I looked out the wi,us,4/27/2004,1/10/1959 18:30,2 minutes,120,37.6547222,-122.40666670000002,disk,ca
7627,teaneck,Cylinder UFO followed by disc seen in fall of 1957 over northern New Jersey,us,2/24/2005,11/10/1957 17:00,2 minutes,120,40.8975,-74.01638890000001,cylinder,nj
7628,corpus christi,UFO over Corpus Christi near naval yard on November 10&#44 1957,us,10/31/2003,11/10/1957 19:00,10 minutes,600,27.8002778,-97.39611109999998,light,tx
7863,wien (austria),The oldest professional photo of a UFO object is from Wien observatory&#44 in 1906&#33,,12/23/2002,11/11/1906 00:00,3 h,10800,48.208174,16.373819,other,
7864,starke,UFO OVER JACKSONVILLE,us,11/11/2003,11/11/1959 20:00,30min,1800,29.9438889,-82.11,sphere,fl
8080,denver,I was approximately 12 years old when I saw this UFO.  I haven&#39t told a lot of people about it.  I thought because I was so young at th,us,8/5/2001,11/1/1954 18:30,10 seconds,10,39.7391667,-104.98416670000002,fireball,co
8840,cicero,Triangular formation passing over head just west of Chicago&#44 Illinois.,us,1/21/2008,11/13/1953 20:00,2 minutes,120,41.8455556,-87.7538889,other,il
9045,thelma (south of),11/14/1954   WHILE HUNTING OBJECT CIRCLED&#44 LANDED AND THEN TOOK OFF STRAIGHT OUT OF SIGHT.,us,9/2/2005,11/14/1954 01:00,5 minutes,300,31.5830556,-96.6108333,disk,tx
9273,holloman afb,What I saw was reported in the Albuquerque newspaper as a &quot;green fireball&quot;.  It streaked across the proving grounds at a very low eleva,,3/21/2003,11/15/1951 06:00,10sec,10,32.8525,-106.106389,circle,nm
9274,keansburg,In November&#44 1953&#44 at 0300&#44 a silvery sphere moves slowly overhead&#44 changes direction&#44 and disappears over the horizon.,us,8/12/2001,11/15/1953 03:00,9 minutes,540,40.4416667,-74.13027779999999,circle,nj
9275,aberdeen,Traveled south to north at a slow speed&#44(90deg. of arc in two min). Size of a half dollar coin at arms length&#44 had a neon orange glow.,us,8/5/2001,11/15/1956 18:30,2:00,120,45.4647222,-98.48611109999999,circle,sd
9276,greenville,Five small disk or spherical-shaped objects merging with a large saucer-shaped object observed by three whitnesses in 1958.,us,4/16/2005,11/15/1958 22:30,ax. 10 min.,600,41.8711111,-71.5525,disk,ri
9277,lafayette,Observed white object for about 20 minutes in Nov. 1959 which approached and then flew away.,us,4/16/2005,11/15/1959 01:30,30 min,1800,40.4166667,-86.87527779999999,circle,in
10580,kirksville (near),Historical sighting (1903 - 1913) Northern Missouri,us,9/15/2005,1/1/1910 24:00,minutes,120,40.1947222,-92.5830556,disk,mo
10813,san diego,A sighting of one silver or white enlongated cylindrical or cigar shaped craft without any visual control surfaces heading west to east,us,7/25/2004,1/1/1944 12:00,3 minutes,180,32.7152778,-117.1563889,cigar,ca
10814,manama (bahrain),Slow  moving circular craft&#44 15 whitnesses&#44 took 5 mins to pass&#44 could be touched.,,3/19/2009,1/1/1947 17:00,5 minutes,300,26.216667,50.583333,circle,
10815,oklahoma/texas border,Copper cigar-shaped object in early 1950&#39s.,,3/31/2008,1/1/1953 14:00,5 minutes,300,33.660135,-97.715556,cigar,tx
10816,nebraska (rural),This is an account told to me by my mother that happened in the early 50&#39s. I was 4-5 years old and don&#39t remember. She said we were tr,,4/16/2005,1/1/1953 24:00,10 min,600,41.492537,-99.901813,,ne
10817,souix city,1954 Radar sighting&#44 Air Force base in Iowa - 50000 - 80000 feet 1&#44200 - 1&#44800 miles per hour.,,4/16/2005,1/1/1954 22:00,30 seconds,30,42.499994,-96.400307,circle,ia
10818,weirton,My Uncle Sam was driving to work very early one winter morning.  He lived down the street from my house.  As he approached my home in h,us,1/7/2000,1/1/1956 05:30,10 seconds,10,40.4188889,-80.58972220000001,disk,wv
10819,dallas,I was flying the first of 4 USAF aircraft on a simulated bombing run on a bridge span in Dallas&#44 Texas.  The other 3 aircraft were behi,us,8/24/2004,1/1/1957 21:00,20 seconds,20,32.7833333,-96.8,unknown,tx
10820,pep,Green fire balls&#44 Texas Panhandle&#44 late 1950&#39s.,us,12/12/2009,1/1/1958 22:00,2sec,2,33.8161111,-102.5577778,fireball,tx
11718,pendleton (2-2 1/2 mi. se of),On a moonless&#44 star-lit night&#44  greenish-orange light moves rapidly and silently  about the dark sky while being pursued by a jet.,us,11/8/2003,11/21/1953 22:30,2 1/2- 3 min.,180,39.9975,-85.7466667,disk,in
12856,lackland air force base near aviation cadet barracks,When I was in preflight for pilot training at Lackland AFB just before Xmas we were standing in formation for reveille we all saw a sau,,12/2/2000,11/25/1953 04:25,3 minutes,180,31.968599,-99.901813,disk,tx
12857,milwaukee,3 disk shaped lights swerving among each other across sky&#44 got to North&#44 shot straight into the stars,us,12/12/2011,11/25/1958 23:00,10 seconds,10,43.0388889,-87.90638890000001,disk,wi
14639,yokahama (japan),The Flying Object over Yocohama Japan after WWII in 1947,,2/14/2006,1/15/1947 10:00,30 minutes,1800,35.443708,139.638026,disk,
15889,fiji islands (s. pacific ocean),Crew contingents of 2 USN vessels see reconnaissance plane fly into something invisible to witnesses.,,8/11/2004,1/18/1943 07:15,10 sec.,10,-18,178.0,,
16651,palm springs,01/20/51     Palm Springs CA     light     hour and a half     bluish-white light of worm-like shape        04/09/06,us,5/15/2006,1/20/1951 04:30,one and a half hours,3,33.8302778,-116.54444440000002,cigar,ca
16652,birchy bay (canada),i couldn&#39t believe what i saw&#44 it was like being in a movie&#44 i still can&#39t believe such an experience.,ca,2/24/2005,1/20/1958 22:43,3min,180,49.333333,-54.733332999999995,disk,nf
17223,crewe (uk/england),This was in the city&#44 I caught a movement over my shoulder and saw a very low black object going north.  It appeared to be floating and,gb,3/19/2002,12/1/1951 19:00,15seconds,15,53.1,-2.433333,cigar,
17224,columbus,A &quot;V&quot;  shape set of lights either on one large&#44 silent aircraft&#44 or 5 different aircraft flying in formation. No noise heard.,us,7/3/2013,12/1/1956 23:00,3-4 minutes,240,39.9611111,-82.99888890000001,formation,oh
17644,sharpsburg,Small UFO at 100&#39&#44  airspeed less than 20mph&#44 absolutely silent&#44  saw crew&#44 normal&#44 white uniforms.,us,3/19/2009,12/12/1948 23:30,3 minutes,180,39.4575,-77.7491667,circle,md
17645,half moon bay,3 blips on a military radar screen flew off the radar screen when military aircraft  approached them.,us,6/12/2008,12/12/1950 22:00,10 minutes,600,37.4636111,-122.4275,other,ca
18199,roswell,Sphere in Roswell. Were aliens looking for thier dead ?,us,12/23/2002,12/15/1945 02:00,1 minute,60,33.3941667,-104.5225,sphere,nm
18200,red bank,Bright orange light&#44 about the size of a pea at arms length&#44 moving slowly from the west to NE.  I was a soldier&#44 stationed at Ft. Monm,us,8/19/2000,12/15/1954 23:10,3-5 min.,300,40.3469444,-74.0647222,circle,nj
18459,yucaipa,Luminous oval over Yucaipa&#44 similar object reported by L.A. newspapers over Inyokern Air Base,us,11/28/2007,12/16/1954 16:50,1:10,70,34.0336111,-117.04222220000001,oval,ca
19046,new york city,good and true info. 500 Lights On Object0: Yes,us,4/27/2007,1/2/1950 00:00,15min,900,40.7141667,-74.0063889,oval,ny
19220,los angeles,Silent&#44 Extreme Bright White Disc of Light&#44 approx. 100 foot diameter Hovered approx. 10 minutes then &quot;Switched Off&quot;.  Small white ligh,us,9/12/1999,12/20/1959 18:30,10 minutes,600,34.0522222,-118.2427778,disk,ca
20134,whitmore lake,Dec. 24&#44 1947 cigar shaped lighted object above the trees near Ann Arbor&#44 Michigan,us,6/12/2008,12/24/1947 21:00,20 min.,1200,42.4394444,-83.7438889,cigar,mi
20407,yokohama (japan),This is a follow-on to the report I made several years ago.  An article about the Brazilian Air Force carried an artist image:  It is t,,8/24/2010,12/25/1946 13:00,20 minutes,1200,35.443708,139.638026,disk,
20951,atkinson (6 miles north of),Young boy witnesses disc in sky above Illinois farmland in December 1925.,us,5/11/2005,12/28/1925 18:00,1 minute,60,41.4208333,-90.015,disk,il
20952,madison,My mother and i worked as telephone swithcboard operators.Dec. 28?&#441957 YOUR BOX DATE WONT TAKE THE DATE I PUT IN.I was in College. We,us,9/2/2005,12/28/1957 00:00,1 hour,3600,43.0730556,-89.4011111,cigar,wi
20953,madison,My mother and i worked as telephone swithcboard operators. I was in College. We worked from 4pm-12 midnight. I went and got the car and,us,6/18/2004,12/28/1957 00:00,1 hour,3600,43.0730556,-89.4011111,cigar,wi
21284,camp mccoy (enroute to),1951-2 winter sighting,,1/10/2009,12/30/1952 12:00,30 minutes,1800,44.009855,-90.683212,cylinder,wi
21285,tehachapi,White fireball hitting ground.,us,2/21/2014,12/30/1959 18:35,30 seconds,30,35.1322222,-118.44805559999999,fireball,ca
22826,chicago,Radar siting near Chicago- Dec. 1952. Object moved about 10 miles per second.,us,2/18/2001,12/6/1952 19:00,45 sec.,45,41.85,-87.65,other,il
25169,new york city (brooklyn),Huge round silver disk hovering over neighbors house&#44 writing on disk and roaring fire from disk,us,3/4/2008,1/8/1946 02:00,5 min,300,40.7141667,-74.0063889,disk,ny
25500,binghamton,1952 UFO  disk outside Binghamton&#44 NY  Girls&#39 Club stops for a look at teenage females,us,4/16/2005,2/10/1952 21:00,10-15 minutes,900,42.0986111,-75.9183333,disk,ny
25809,merced,Three luminescent chartreusse spheres moving &quot;in trail&quot; in a wide arc (34 mi) across the Valley sky.,us,10/11/2005,2/1/1946 17:00,10 seconds,10,37.3022222,-120.48194440000002,sphere,ca
25810,fairbanks,RADAR INTERCEPT OF UFO BY USAF PILOT IN ALASKA 1954.,us,1/10/2009,2/1/1954 02:00,19 min.,1140,64.8377778,-147.7163889,unknown,ak
26550,holyoke (6-8 miles southwest of),In the winter of 1931&#44 I saw a flying machine (UFO) as I was riding on a horse in the draw of a pasture.,us,6/18/2004,2/15/1931 14:00,1minute,60,40.5844444,-102.3019444,oval,co
26551,los angeles,I was only 8yrs old but I remember it clearly. While at my grandmother&#39s house&#44 my mother sent me to our car to get a sweater for her.,us,4/9/2004,2/15/1951 11:00,45min.,2700,34.0522222,-118.2427778,disk,ca
26552,burney,Observance of one large and two smaller UFOs in a comparitive prolonged period of time.,us,4/18/2014,2/15/1954 19:30,15-30 minute,1800,40.8825,-121.6597222,disk,ca
26553,new york city (brooklyn),TWO BRIGHT STAR SHAPE OBJECTS AT 700PM GOING FROM SOUTH SKI TO THE NORTH AT HIGH  SPEEDS NO SOUND,us,1/10/2009,2/15/1955 19:00,5 minutes,300,40.7141667,-74.0063889,light,ny
26554,welwyn garden city (uk/england),2 orange lights like fireball stayed together quit low for 10 mins then one shot off so fast i could not beleive it,gb,2/14/2010,2/15/1955 21:55,20 mins,1200,51.8,-0.2,fireball,
26555,howell,Large glowing object that seemed to be  landing&#33&#33,us,3/19/2002,2/15/1958 02:30,30 to  45 sec.,45,42.6072222,-83.92944440000001,cigar,mi
27013,nellis afb (las vegas),We are dealing with something very real.,,10/27/2004,2/17/1952 18:00,30 mins,1800,36.241416,-115.050807,disk,nv
27448,syracuse,1947-Chance observation of night sky reveals many UFO&#39s traversing upper atmosphere....,us,8/16/2002,2/20/1947 22:15,one hour +,360,43.0480556,-76.1477778,disk,ny
29103,thompsonville,A golden-orange glowing bowl&#44 flat on top&#44 2 ft in dia hovered overhead for about 30 sec. then was gone in a streak without  a sound,us,7/25/2004,2/3/1951 22:00,30 seconds,30,41.9969444,-72.5994444,disk,ct
30544,petaluma,Objects were several thousand feet in altitude and bounced around the sky basically overhead.  I was 17 years old at the time.  The Pet,us,1/28/1999,3/1/1956 13:00,30 minutes,1800,38.2325,-122.63555559999999,oval,ca
31444,alice,An extremely noisy disc.,us,5/2/2003,3/15/1946 15:30,20 secs.,20,27.7519444,-98.0694444,disk,tx
31445,espanola (canada),Large silvery cigar shaped craft was seen by a 10 year old in Northern Ontario&#44 Canada in 1951.,ca,2/12/2004,3/15/1951 10:30,15 seconds,15,46.25,-81.766667,cigar,on
31446,los angeles,I was 11 years old and my family and I were at a kite flying contest in a park . About 7 silver saucer shaped ships hovered over the pa,us,9/2/2005,3/15/1957 13:00,15 mins,900,34.0522222,-118.2427778,formation,ca
31447,los angeles,There were about 5-7 saucers&#44 gray color in a V shape form&#44 a mass sighting of about 200 or more people.,us,4/16/2005,3/15/1957 15:00,15 mins,900,34.0522222,-118.2427778,disk,ca
32459,bowie,Unusual object seen from different viewpoints.,us,5/13/2003,3/20/1956 20:00,15 min.,900,39.0066667,-76.7794444,disk,md
32961,hampton,Commuting home from work during an ice storm I encountered a UFO.,us,5/10/2004,3/22/1956 17:30,minutes,120,44.6102778,-93.0019444,sphere,mn
34742,jena,Heading S. in my car on two lane highway entering Jena LA saw UFO&#39s to the S.E. many cars stopped to abserve,us,1/28/1999,3/5/1957 19:30,15min.,900,31.6830556,-92.1336111,sphere,la
35074,fort devans,I was on duty at base. Saw and heard craft.About 50 feet over building.Sound changed when moveing from low to high pitch.,,1/28/1999,3/7/1957 04:00,15 min.,900,42.537222,-71.61555600000001,oval,ma
35615,seattle,UFO Hovers over Seattle sky,us,4/27/2004,4/10/1949 15:00,ten minutes,600,47.6063889,-122.33083329999998,disk,wa
35616,chariton,&quot; Flying Wing Before It&#39s Time &quot;,us,6/4/2004,4/10/1953 13:00,10 min,600,41.0138889,-93.3063889,other,ia
35978,pacific ocean,April&#44 1945 I saw a disc over our ship&#44 all day as we neard Okinawa.,,4/16/2005,4/1/1945 10:00,all day,86400,-8.783195,-124.508523,disk,
35979,haverhill,Historical account&#44 Haverhill MA,us,9/2/2005,4/1/1953 15:00,seconds,2,42.7761111,-71.07777779999999,chevron,ma
35980,cambridge,Two red-orange lights skirted Boston rooftops in opposite directions&#44 then went over my dormitory in tandem.,us,7/14/2013,4/1/1953 18:00,3 minutes,180,42.375,-71.10611109999999,sphere,ma
35981,stanford campus,Civil Defense plane spotter  reports UFO sighting at Stanford University,,7/1/2002,4/1/1954 22:00,10 minutes,600,37.427475,-122.169719,disk,ca
35982,miami,1959 childhood encounter with a spherical&#44 faceted object&#44 that had landed in my back yard in Miami.,us,2/14/2008,4/1/1959 01:00,30-45 minutes,2700,25.7738889,-80.1938889,sphere,fl
36769,saanich (canada),THREE DISCS.IN TRIANGULAR FORMATION TRAVELING SW. AT APROX. 30 DEG.HORIZON FASTER THAN PROP.AIRCRAFT.THE DAY WAS CLEAR AND THE TIME WAS,,8/1/2003,4/15/1944 17:00,2  min est.,120,48.459263,-123.376722,disk,bc
36770,miami (north of),A GLOWING METALLIC OBJECT OF HUGE SIZE OVER THE ATLANTIC HEADING NORTH&#44 BEFORE ROSWELL.,us,1/10/2009,4/15/1947 14:00,5-7 min,420,25.7738889,-80.1938889,other,fl
36771,san deigo,The craft was V shaped with an arodinamic  body the thrust was in the form of the spectrum.,,7/25/2004,4/15/1947 23:00,10 &#44seconds,10,32.715738,-117.161084,triangle,ca
36772,arkansas (eastern; on us hwy 70 abt 75 m w/o memphis&#44 tn),Disk shaped unmoving over highway for 1-3 minutes in eastern Arkansas&#44 est. size about 200 feet.,,12/16/2005,4/15/1950 08:00,1-3 minutes,180,35.20105,-91.83183299999999,disk,ar
36773,waynesborough,Fishburne Military School:  9 students witness saucer-shaped object from ROTC Drill Field in 1950.,,11/19/2012,4/15/1950 14:00,5 minutes,300,38.068469,-78.88946800000001,disk,va
36774,chicago,HBCCUFO CANADIAN REPORT:  1952 metallic&#44 silver round or saucer shape object.,us,7/23/2003,4/15/1952 13:00,approx: 45 minutes,2700,41.85,-87.65,disk,il
36775,greenville,-SAW TWO SMALL 3-4 FOOT TRIANGULAR SHAPED DULL METALIC OBJECTS BELOW THE CLOUDS MOVING IN A SYNCRONIZED MANNER  ROLLING END OVER END AN,us,8/4/2003,4/15/1952 16:00,1-2 minutes,120,33.1383333,-96.1105556,triangle,tx
36776,los angeles,Green fireball traveling north at a low altitude over Los Angeles,us,12/14/2004,4/15/1953 12:00,5 seconds,5,34.0522222,-118.2427778,fireball,ca
36777,midwest city,Ball of yellow light with dancing spikes of light&#44 around the circumference-one of the spikes reached out to  me.,us,4/27/2004,4/15/1953 16:00,15 min,900,35.4494444,-97.3963889,fireball,ok
36778,mendham,A saucer-shaped UFO hovered at eye-level about fifty feet away for five minutes&#44 then took off at great speed.,us,1/31/2004,4/15/1959 21:00,five minutes,300,40.7758333,-74.6011111,disk,nj
37331,winooski,more on the 1958 &quot;fireball&quot; in Winooski sky in case you didn&#39t recieve the PDF file I sent of the newspaper clippings.,us,4/16/2005,4/17/1958 21:30,1 &amp; 1/2 hours,300,44.4913889,-73.18611109999999,oval,vt
37332,winooski,object hovered&#44 landed then left headed north traveling at 60Kmph&#44 being tracked across USA by several radar sites.,us,2/22/2005,4/17/1958 21:30,1 hr 30 min,5400,44.4913889,-73.18611109999999,oval,vt
37517,new york worlds fair,The object seemed to be a lighted amorphous cloud-like shape.,,4/16/2005,4/18/1933 19:00,30 mins.,1800,40.759941,-73.849168,light,ny
38258,clovis,Saw UFO in 1944 over an airbase in New Mexico&#44 not very far from&#44 Roswell.,us,4/16/2005,4/2/1944 11:00,1:30,90,34.4047222,-103.2047222,disk,nm
38954,atlantic ocean (troopship/ uss rose),An object that looked like a star until it moved.,,4/2/1999,4/25/1958 19:00,1/hour,60,-14.599413,-28.673146999999997,unknown,
39126,baden,Report from the past - Orangish saucer shaped with black rotating center,us,2/18/2001,4/26/1959 19:00,15 min,900,40.635,-80.2283333,cylinder,pa
39809,bering sea,1943 sighting of four linearly arranged red lights in Bearing Sea,,3/19/2009,4/30/1943 23:00,1 hour,3600,59.670367,-139.859082,other,ak
39810,jamison,In the spring of 1953 my mother &amp; I saw an IMMENSE silent grey metallic cigar shaped object moving from Doylestown toward Jamison.,us,12/23/2002,4/30/1953 16:00,several minutes,120,40.2547222,-75.08972220000001,cigar,pa
40275,france (above; from aircraft),((NUFORC Note:  Possible hoax.  PD))  Saw 3 cigar shaped crafts.,,3/9/2004,4/5/1916 13:00,about 1 min.,60,46.227638,2.213749,cigar,
41142,scipio,Round red glowing ball going west in Northern sky.,us,4/16/2005,5/10/1948 19:00,10 seconds,10,39.0791667,-85.7175,sphere,in
41489,oak ridge (drive),log shape whooshing object observed near charleston w.v.,us,3/19/2002,5/1/1949 14:00,40seconds,40,38.075,-81.10972220000001,other,wv
41490,holbrook,I turned around and over the trees was a large yellow object shaped like a football without the tips on the ends.,us,4/16/2005,5/1/1955 15:00,1 minute,60,42.155,-71.00916670000001,egg,ma
41491,canton,At first the silver disc was stationary. As it moved across the sky&#44 it moved so rapidly&#44 it could not have been man made.,us,9/15/2005,5/1/1956 12:00,2 minutes,120,40.7988889,-81.37861109999999,cigar,oh
41492,canton,Cigar shaped object is motionless for more than a minute&#44 then moves west at incomprhensible speed&#44 then out of sight.,us,4/27/2004,5/1/1957 12:00,3 minutes,180,40.7988889,-81.37861109999999,cigar,oh
41493,columbus,Red-orange lights over seen motionless over Lockborne AFB-one vanished and one sped out of sight.,us,2/22/2002,5/1/1959 18:30,2-3 min,180,39.9611111,-82.99888890000001,light,oh
42287,grays,I am not sure of the exact date or time of this event but it took place in the early morning hours somtime in the late 40&#39s to early 50,us,10/31/2003,5/15/1949 06:30,2-5 min.,300,32.6736111,-81.0205556,light,sc
42288,allyn,Close encounter involving physical examination in unknown craft.,us,8/16/2002,5/15/1952 20:00,3 hrs.,10800,47.3858333,-122.8263889,disk,wa
42289,toronto (canada),3 discs in formation flipping into clouds and descending  out of them.,ca,12/19/2003,5/15/1953 16:00,20-30 sec,30,43.666667,-79.416667,disk,on
42290,corvallis (near; small town of alsea),Disc top&#44 or bottom to our view following&#44 west to east&#44 a 4 engine (prop) maybe a Tri Star (three rudders) About 1/2 way across our vi,us,1/28/1999,5/15/1954 12:00,1-2 mins.,120,44.5647222,-123.26083329999999,diamond,or
42291,warrington,fireball into pensacola bay,us,2/1/2007,5/15/1955 03:00,5 minutes,300,30.3838889,-87.275,fireball,fl
42292,pine castle afb,A large white light travelling slow and then at a great speed from low to great height in seconds no sound,,4/16/2005,5/15/1956 20:00,45 min,2700,28.189909,-80.60054699999999,light,fl
42293,atlantic ocean (off africa),While flying night navigational mission. We picked up a target on radar flying from east to west. Navigator clocked target flying at 50,,6/18/2004,5/15/1957 02:00,0:30,30,-14.599413,-28.673146999999997,unknown,
42294,evanston,Distant craft in the same part of the sky for 3 nights&#44 seen by a group,us,10/31/2003,5/15/1959 04:00,20 minutes,1200,42.0411111,-87.69,unknown,il
42696,cincinnati,5/16/1958/ 1500 hours/ just getting dark&#44mount arity forest,us,5/15/2006,5/16/1958 24:00,24 hours,86400,39.1619444,-84.4569444,diamond,oh
42821,ada,This was a result of a prayer or telepathic request.  Seti is a load of crap.,us,3/31/2008,5/17/1956 10:22,20 sec,20,34.7744444,-96.6780556,circle,ok
43283,north hollywood,I was four years old. i would visit at my grandmothers house. she lived in north hollywood . i was playing in the front yard when a bal,us,6/2/1998,5/20/1958 24:00,1 week,604800,34.1722222,-118.37805559999998,sphere,ca
44213,rhinebeck,KITE SHAPED OBJECT CHANGED 3 COLORS AND JIGGED UP AND DOWN WHILE FLASHING&#44 VERY&#44 VERY BRIGHT.,us,9/24/2003,5/25/1957 13:00,20 seconds,20,41.9266667,-73.91305559999999,diamond,ny
44371,quincy (rural),Saucer shaped object with lights and a dome seen near Quincy&#44 Il.,us,12/12/2009,5/26/1954 04:30,7 seconds,7,39.9355556,-91.4097222,disk,il
44993,cincinnati,Large saucer shaped craft hanging motionless and silently over Cincinnati. 500 Lights On Object0: Yes,us,3/4/2008,5/30/1959 17:00,60 minutes,3600,39.1619444,-84.4569444,disk,oh
45609,palmer park,I saw a white spherical light zig zaging across the sky leaving a plasma trail at unthinkable speed.,us,4/22/2003,5/5/1958 20:00,15-20 min.,1200,38.9208333,-76.8719444,sphere,md
45610,el sobrante,Bright&#44 yellow/orange circle&#44 10 ft. in diameter&#44 silent&#44 slow moving&#44 5mph&#44 50 ft. above ground-2 minutes&#44 chased &amp; threw rocks at it.,us,3/21/2003,5/5/1959 09:00,2 minutes,120,37.9772222,-122.29416670000002,circle,ca
46002,north hollywood,A visit by a ufo object by a young child in 1958,us,6/12/2007,5/7/1958 10:00,5days,432000,34.1722222,-118.37805559999998,circle,ca
46435,anchorage,Disk encountered operation difficulties and crashed.,us,4/16/2005,6/10/1949 21:00,3 minutes,180,61.2180556,-149.90027780000003,disk,ak
46436,napa,Saw a circular craft approximately 30 foot in diameter.  It was glowing a green/purple rather subdued.  I did not like the color.  It h,us,12/12/2013,6/10/1950 24:00,2 minutes,120,38.2972222,-122.28444440000001,disk,ca
46437,chicago (south suburb),My sighting of two objects in Chicago&#44 IL as a pre-teen in the early 50&#39s,us,5/15/2006,6/10/1952 12:00,10 minutes,600,41.85,-87.65,circle,il
46438,estes park,1953  Estes Park&#44 Colorado  cigar shaped craft floating above pine trees on a ranch,us,7/5/2008,6/10/1954 20:00,3-5 minutes,300,40.3772222,-105.5211111,cigar,co
46439,baldwin park,In 1958&#44 an eleven year old girl sees a cigar shaped saucer hovering near her home.,us,3/11/2003,6/10/1958 12:00,5 minutes,300,34.0852778,-117.96,cigar,ca
46440,monroe,Observed three very high flying  objects fly at unusual maneuvers,us,4/27/2007,6/10/1959 13:00,30  min.,1800,41.9163889,-83.3977778,unknown,mi
46694,cicero,((NUFORC Note:  Probable hoax.  Note date.  PD))  Strange gathering of objects in the sky.,us,5/12/2009,6/11/1920 21:00,1 minute,60,40.1238889,-86.0133333,unknown,in
46695,vancouver (canada),Six year old witness was sitting on front lawn enjoying sun. Opened eyes and turned head to see med grey disklike object hovering over,ca,12/2/2000,6/11/1953 11:00,30 seconds,30,49.25,-123.13333300000001,disk,bc
46696,glenburn,A FLASH OF METALIC LIGHT REFLECTING OF A OBJECT MOVING AT MY GUESS AT 3-4 000MPH,,1/17/2004,6/11/1954 02:00,2- seconds,2,44.916862,-68.84574599999999,unknown,me
46858,wills point,Cigar shaped object moving from West to East,us,4/16/2005,6/1/1910 15:00,2 minutes,120,32.7091667,-96.00805559999999,cigar,tx
46859,ithaca/freeville,Very Large Triangle Shapped Object,,1/19/2005,6/1/1930 22:00,20 mins,1200,42.509167,-76.393804,triangle,ny
46860,abilene,This is a what my mother related to me regarding an experience my grandparents had.  They did not tell anyone for 20 or more years beca,us,2/14/2006,6/1/1931 13:00,30 min. approx.,1800,38.9172222,-97.2136111,disk,ks
46861,waterloo,4 high school students see bright&#44 ground-level&#44 slow moving fireball in the late 1930&#39s,us,2/21/2014,6/1/1939 20:00,5 minutes,300,34.9180556,-88.0641667,fireball,al
46862,ludington (hamlin lake),As a boy some 60 plus years ago I saw a round silver disc in the sky when I looked up from playing with ant hills.,us,10/7/2003,6/1/1941 13:00,30 seconds,30,43.9552778,-86.4525,disk,mi
46863,hapeville,bright object approchjng Venus&#44 1940&#39s,us,8/7/2007,6/1/1942 22:30,2-3 min,180,33.66,-84.41027779999999,unknown,ga
46864,nebraska,My 94 yr. old grandmother&#44 ((deleted)) described to me an encounter that occured in nebraska in about 1943. She was driv,,12/2/2000,6/1/1943 15:00,10-20 min,1200,41.492537,-99.901813,disk,ne
46865,norfolk/sizewell (uk/england),observing  mans warfare,,8/20/2001,6/1/1943 19:00,10 minutes,600,36.850769,-76.285873,cigar,
46866,los alamos,Disk hovers over Los Alamos during the development of the atomic bombs; pursued by planes.,us,5/12/2009,6/1/1944 12:00,1+ hour,3600,35.8880556,-106.3063889,disk,nm
46867,penuela (puerto rico),This happened when I was 8-years old in Penuela&#44 Puerto Rico.  Around 7:00 pm I was outside playing alone.  I heard a sound of bees buz,,12/12/2009,6/1/1944 19:00,60 seconds,60,18.864641,-96.892883,circle,
46868,salinas afb,ufos belong to the US Air Force,,1/5/2011,6/1/1945 12:00,30 minutes,1800,36.760693,-121.765735,disk,ca
46869,jasper,I belived it would be to our best Intrest to check this out .,us,11/21/2010,6/1/1945 13:30,5minute,300,30.5180556,-82.9483333,fireball,fl
46870,cleveland,It was about 2:15 in the morning when my wife woke me from a deep sleep and began to complain of stomach problems. As I was getting out,us,4/28/2001,6/1/1947 02:30,about three hours,300,41.4994444,-81.69555559999999,light,oh
46871,espanola (outside of),Saucer shaped object  about  ten feet in diam.,us,8/30/2013,6/1/1947 17:00,5 minutes,300,35.9911111,-106.08,circle,nm
46872,oroville,I was only six&#44 but I was playing jacks in front of my home&#44 I looked up at the ball&#44 and there they were..no noise..I know now&#44 they w,us,12/2/2000,6/1/1947 18:00,1 minute,60,39.5138889,-121.5552778,,ca
46873,minden,High altitude sighting in 1947,us,2/18/2001,6/1/1947 24:00,10 seconds,10,32.6152778,-93.2866667,unknown,la
46874,napan (canada),while working on the farm they noticed a cube shape object (tumbling) by about the same speed as a plane but much lower.It was the size,,3/19/2002,6/1/1948 24:00,20 sec,20,47.006174,-65.42088000000001,rectangle,nb
46875,mexicali (mexico),Large disk observed by townspeople in large Mexican city,,12/16/2005,6/1/1950 12:00,1 minute,60,32.624539,-115.452262,disk,
46876,philadelphia,Childhood sighting of disk witnessed by mother and sons.,us,6/12/2008,6/1/1950 16:00,ten minutes or less,600,32.7713889,-89.1166667,disk,ms
46877,pittsburgh,One larger white object &amp; 2 smaller round white objects.,us,2/14/2006,6/1/1950 20:00,20/25 minutes,1500,40.4405556,-79.9961111,oval,pa
46878,brandon (canada),Circular Craft and Man in Black Sighted in Summer of 1951 at Brandon&#44 Manitoba&#44 Canada,ca,2/18/2001,6/1/1951 07:00,30 minutes,1800,49.833333,-99.95,disk,mb
46879,oklahoma (northeastern part; in-flight sighting),Observed cigar-shaped object flying next to commercial airliner for 5 minutes&#44 pilot commenting on it.,,12/16/2005,6/1/1951 19:00,5 minutes,300,35.46756,-97.516428,cigar,ok
46880,dousman,Silver monkeys that were about 3-4 feet tall.,us,3/31/2008,6/1/1952 11:00,10 seconds,10,43.0141667,-88.4725,,wi
46881,linlithgow (west  lothian) (uk/scotland),It was about my lunch time i looked up to see the town clock as i passed almost dircetly overhead i observed a flying disk&#44 circular&#44 s,gb,12/2/2000,6/1/1952 12:00,2 mins.,120,55.889082,-3.5694190000000003,circle,
46882,norfolk/newport news (aboard ferry boat between),Best recall as a SUnday night.  From east side of ferry boat spotted string of brilliant red balls that apeared to be diving into the s,,2/16/2000,6/1/1952 22:00,10 seconds,10,36.884735,-76.299024,fireball,va
46883,fresno,i  seem to  be the only one of  my  siblings  to  recall this event.i  do not  understand  why  this  is. 500 Lights On Object0: Ye,us,3/31/2008,6/1/1953 21:00,5 minutes,300,36.7477778,-119.77138889999999,,ca
46884,houston,I fulfilled my duty by passing on an unusual accourance,us,6/12/2008,6/1/1954 00:00,2-3 minutes,180,29.7630556,-95.3630556,disk,tx
46885,ovid,I saw two silver/gray objects of different shapes.,us,12/5/2001,6/1/1954 06:00,10 min.,600,42.6763889,-76.8233333,disk,ny
46886,springfield (rural area near),This happened many years ago when I was a child.  Object&#44 3&#39 long&#44 crystal type cylinder&#44 pinkish color came in fast from the East and,us,12/2/2000,6/1/1954 08:00,5-10 mins.,600,39.8016667,-89.64361109999999,cylinder,il
46887,el cerrito,It was a Sunday evening and must have been in November of Decemberme to Berkeley because it was dark and I needed to be in Berkeley for,us,8/5/2001,6/1/1954 19:00,5 minutes,300,37.9158333,-122.31055559999999,light,ca
46888,toledo,SEE ABOVE,us,8/5/2001,6/1/1954 19:00,one minutue,60,41.6638889,-83.5552778,disk,oh
46889,norfolk/nob,bright white like full moon&#44s slightly tilted crossed over our ship from west to east not at high rate of speed  clear night  none of t,,11/23/1999,6/1/1954 20:00,10 -15 seconds,15,38.393797,-78.12990699999999,disk,va
46890,philadelphia,They Are Our Brothers,us,12/2/2000,6/1/1954 20:00,seconds,2,39.9522222,-75.1641667,disk,pa
46891,fish canyon,Helix flight pattern at zenith,,6/2/1998,6/1/1954 23:00,1 minute,60,34.157229,-117.923952,light,ca
46892,ramey air force base (puerto rico),Coming out of mess hall&#44 I saw A circular&#44 sharp edged&#44 without other features object over the ocean&#44 in line with the runway at a SAC,,2/16/2000,6/1/1954 24:00,10 minutes,600,38.738308,-93.57302800000001,circle,pr
46893,bagley,I was 5 years old at the time&#44 family of 4 told they would remember nothing. I managed to break free of the (mind) control just before,us,5/24/1999,6/1/1955 02:00,2 hours,7200,47.5216667,-95.39805559999999,circle,mn
46894,cincinnati,June 1955.  Bronze saucer/cylindrical craft; approx. 3:30 p.m.&#44 no life form sited.,us,6/18/2003,6/1/1955 15:29,approx. 1-1/2 min,120,39.1619444,-84.4569444,disk,oh
46895,martinez (outskirts),We observed a large object aprox.size &quot;football field or larger&quot; aproach us 45mph make 90 degree turn. color &quot;red glowing ember&quot;.2000 f,us,2/16/2000,6/1/1955 17:00,30 minutes,1800,38.0194444,-122.13305559999999,circle,ca
46896,clinton,Egg shaped craft landed on lonly country road&#44 seen by a family of five.,us,5/14/2002,6/1/1955 20:30,5 or  6 minutes,360,36.1033333,-84.1319444,egg,tn
46897,belton,THE EVENT WAS A PERSONAL CONTACT WITH AN ALIEN. SINCE I WAS ABOUT 6 YEARS OLD AND IT HAS BEEN A LONG TIME FORGIVE ME ANY DESCREPANCIES,us,1/28/1999,6/1/1956 19:00,10min.,600,38.8119444,-94.5316667,other,mo
46898,memphis,Object was glowing dull orange bent cylinder. Hovered noiselessly over RR tracks for a time&#44 then took off straight up.,us,1/28/1999,6/1/1956 20:00,10-15 min.?,900,35.1494444,-90.04888890000001,cylinder,tn
46899,el paso,The UFO did not make any sounds.  The craft&#39s disappearance from the sky was like a blurr.,us,7/26/2002,6/1/1957 10:00,5 to 7 seconds,7,31.7586111,-106.4863889,disk,tx
46900,london (uk/england),On a Friday night in November 1957&#44 during the showing of Wells Fargo on the T.V.&#44 my Grandfather came in to say that there was a Flyin,gb,1/22/2000,6/1/1957 19:50,10 min,600,51.514125,-0.093689,,
46901,glens falls,there was no mistakeing what i was looking at it was up close and they traveled very slowly,us,12/2/2000,6/1/1957 20:00,3or4min,240,43.3094444,-73.6444444,disk,ny
46902,irving,tryangle over tx,us,1/21/2008,6/1/1957 22:00,5minutes,300,32.8138889,-96.9486111,light,tx
46903,union bower are irving,tryangle over tx,,11/28/2007,6/1/1957 24:00,30 minutes,1800,32.814018,-96.948894,formation,tx
46904,middlesex,white glowing lights,us,3/11/2006,6/1/1958 02:00,1 hour,3600,35.79,-78.2041667,circle,nc
46905,san francisco,A low flying huge silver flying saucer positions itself over home in San Francisco in 1958.,us,10/31/2003,6/1/1958 19:00,2 minutes,120,37.775,-122.41833329999999,oval,ca
46906,new york city (bronx),7 brightly illuminated elliptical discs racing uniformly across the night sky were seen moving NNW to SSE equally spaced apart.,us,4/16/2005,6/1/1958 21:00,10 seconds,10,40.7141667,-74.0063889,oval,ny
46907,timpson,Round lights&#44blMulticolored lights moving in circles on and around reswidence,us,12/20/2000,6/1/1958 22:00,1hour 30 min,5400,31.9036111,-94.395,light,tx
46908,grand island,Hovering craft 60-75&#39 over roadway,us,2/22/2002,6/1/1958 22:30,2-3 min.,180,40.925,-98.3416667,circle,ne
46909,wabash river (on),Metallic object up close,,2/14/2008,6/1/1959 08:00,15 minutes,900,37.824151,-88.03204000000001,circle,in
46910,orange,Sighted craft and transport of object to the ground,us,3/19/2009,6/1/1959 12:00,1 hour?,3600,41.2783333,-73.0261111,cylinder,ct
46911,sidney,Saw a bright light shining down.  Pulled over to the side of I75 and watched it about 5 min. before it took off very quickly heading ea,us,4/27/2007,6/1/1959 18:30,5 minutes,300,40.2841667,-84.1555556,light,oh
46912,nelson,this was told to me from the man who seen the object. it was after a softball game in the summer of 1959. he was in the country going h,us,2/24/2001,6/1/1959 22:00,5 to 10 min,600,40.2016667,-98.0675,cigar,ne
47998,budapest (hungary),The &#39object&#39 made an extremely high speed turn which would be impossible with our traditional thechnology even today.,,1/31/2004,6/12/1950 10:30,1min,60,47.497912,19.040235,circle,
48184,oakmont,a very brillant blue-white object coming towards us lowering above us and hovering over us a few minutes before shooting straight up,us,3/2/2004,6/13/1947 20:18,approx.10 min.,600,40.5216667,-79.8425,unknown,pa
48185,fortville (2-3 mi. n. of&#44 state road 13),3 saucer-shaped objects flying fast (with wobbling motion) from N. to S. at a medium-high altitude--no sound&#44 no trails&#44 only silence.,,11/8/2003,6/13/1952 07:30,18-20 sec.,20,39.932263,-85.848035,disk,in
48360,livermore falls,A recalled childhood event,us,2/4/2013,6/14/1957 10:00,3-5 minutes,300,44.4752778,-70.18861109999999,diamond,me
48568,hubbard,It had a bluish tint with what looked like a candle light in the center traveling slowly south.,us,4/16/2005,6/15/1937 24:00,10 seconds,10,45.1825,-122.80666670000001,cylinder,or
48569,burnaby (canada),I was six at the time&#44My mother and brother saw them as well. They were not moving&#44just stayed cloce to a cloud after which they starte,ca,11/2/2004,6/15/1946 14:00,15 min,900,49.25,-122.95,cigar,bc
48570,winona (aprox.20 mi.north west of),2 unmoving round objets side my side like eyes streight overhead above the fiew clouds that drifted under them.,us,4/2/1999,6/15/1947 10:00,15 sec,15,44.05,-91.6391667,disk,mn
48571,gackle,Alien hawk sighted in North Dakota,us,12/3/2004,6/15/1947 14:00,aprox. 1 hour,3600,46.6258333,-99.1416667,other,nd
48572,madison,Three  disks appear in the West&#44 stop at zenith&#44 and proceed Eastward a rapid rate of speed.,us,3/19/2002,6/15/1947 18:00,2-3 min.,180,43.0730556,-89.4011111,disk,wi
48573,borger,Dull silver disk flying west at incredible speed making no sound above swimmers in pool.,us,2/14/2008,6/15/1948 16:00,8-10 seconds,10,35.6677778,-101.3969444,disk,tx
48574,grosse pointe park,1951-52  Grosse Pointe&#44 MI. Three saucer shaped objects entering into a large oval shapped object.,us,11/28/2007,6/15/1950 13:00,10 minutes,600,42.3758333,-82.9375,oval,mi
48575,bonifay (near),The objects were discs&#44 white&#44 and I estimate were moving around 100 mph in a southerly direction.,us,1/12/2012,6/15/1950 20:00,10 seconds,10,30.7916667,-85.6797222,disk,fl
48576,greenville,Sighting of white lights in evening sky west of Greenville MS circa 1951.,us,2/14/2006,6/15/1951 20:30,5 minutes,300,33.41,-91.0616667,disk,ms
48577,jacksonville,extremely fast triangle shape object with one light on rear comes to a sudden stop&#44 then seems to shoot out of sight,us,9/13/2002,6/15/1952 21:00,30 seconds,30,30.3319444,-81.6558333,triangle,fl
48578,maywood,7 balls of *orange moon* lights in 2 V formations observed for 3 to 5 minutes until all sped off in 7 differen directions,us,6/9/2009,6/15/1952 23:00,3 to 5 minutes,300,33.9866667,-118.18444440000002,circle,ca
48579,luke airforce base,This was in the summer of 1951 or 1952&#44 not sure&#44 went to Litchfield Park&#44 Arizona every summer to visit a girl friend&#44 and we went to,,4/27/2004,6/15/1952 24:00,15 min,900,33.536096,-112.38190300000001,egg,az
48580,piedra blanka (los padres national forest),I was camping with my school at Piedra Blanka in Los Padres National Forest. We all slept in sleeping bags jus out under the stars. No,,1/11/2002,6/15/1952 24:00,10minutes,600,-28.450537,-65.791539,cigar,ca
48581,timmins (canada),1952 disks and missing time,ca,10/31/2003,6/15/1952 24:00,hours,600,48.466667,-81.333333,disk,on
48582,wenatchee,round&#44 silver-colored&#44 shiny&#44 saucer-shaped object flew at a high rate of speed horizon to horizon - taking about 45 seconds,us,1/17/2004,6/15/1953 12:00,45 seconds,45,47.4236111,-120.30916670000002,disk,wa
48583,north bend,My cousin and I who were children at the time&#44 watched a round&#44 smooth&#44 silent object which had a pinkish glow&#44 come across his field f,us,9/26/1998,6/15/1953 18:00,2 minutes,120,47.4958333,-121.78555559999998,circle,wa
48584,roswell,My oldest sister was born at Walker AFB (Roswell) NM in 1952&#44 I was born there as well in 1954.  My Dad&#44 now deceased&#44 was an Air Force,us,2/18/2001,6/15/1953 24:00,4 hours,14400,33.3941667,-104.5225,,nm
48585,claymont,It was just before noon on a warm sunny  June day&#44 I was 16 yrs old. Riding in the car with my brother-inlaw driving&#44 my sister riding,us,11/8/2003,6/15/1954 11:45,10 secs,10,39.8005556,-75.46,disk,de
48586,ellington afb,Radar site-200mi range @Ellington AFB-Radar op observed an unidentified object  coming in from NW at a high rate of speed-Abt 8 of us w,,2/14/2006,6/15/1954 16:30,12 min.,720,29.6007,-95.176952,disk,tx
48587,missouri (northwest part),I will never forget this this experience. The light is burnt into my memory liked it happened only this morning. I am now 54 years old.,,3/21/2003,6/15/1955 04:30,5 min,300,37.964253,-91.83183299999999,light,mo
48588,youngstown,In Retrospect...I definately saw a UFO&#33,us,4/16/2005,6/15/1955 08:00,1 min. (est.),60,40.2797222,-79.36583329999999,,pa
48589,daytona beach,Three fireballs moved slowly along the beach&#44 then suddenly accelerated and flew straight up into the night sky and disappeared.,us,4/16/2005,6/15/1955 21:00,2 minutes,120,29.2105556,-81.02305559999999,fireball,fl
48590,south st. paul,Peter: you&quot;ll have to call me for the whole story. it will take too long to write it down. I do not know that muc,,1/5/2011,6/15/1955 24:00,5 hours,18000,44.87598,-93.02758,disk,mn
48591,san francisco,I saw a football shaped&#44 silver metalic object&#44very high&#44going very fast.,us,4/15/2000,6/15/1956 12:15,2-3 min,180,37.775,-122.41833329999999,other,ca
48592,palo alto,Fireball landing&#44 and when inspection attempted&#44 retreating.,us,4/18/2012,6/15/1956 18:00,5 to 10 minutes,600,37.4419444,-122.14194440000001,fireball,ca
48593,richfield springs,SIX CIGAR SHAPED UFO&#39S OVER UPSTATE NEW YORK LAKE IN 1956/57.,us,10/15/2003,6/15/1956 18:00,2 min. aprox.,120,42.8533333,-74.9858333,cigar,ny
48594,vista,bright orange cigar shaped craft&#44 at least 3 miles long&#44 1/2 mile wide.,us,7/16/2003,6/15/1956 19:15,15-20 minutes,1200,33.2,-117.24166670000001,cigar,ca
48595,farragut,Cigar shaped craft seen in Farragut&#44 TN community,us,2/1/2007,6/15/1956 20:00,~10 min,600,35.8844444,-84.15361109999999,cigar,tn
48596,tulsa,Mysterous Flash seen over Tulsa and as far as Dallas and Kansas City&#33,us,7/26/2002,6/15/1956 20:00,3 to 5 mins.,300,36.1538889,-95.9925,flash,ok
48597,salem,We walked out side during supper&#44 woke up standing in the back yard&#44 then I saw 5 of them  watching me.,us,7/4/2012,6/15/1956 20:32,1:08,68,39.5716667,-75.4675,disk,nj
48598,new york city (queens),I looked into the darkened sky  and observed a light source that was moving in a circular motion.,us,9/2/2005,6/15/1956 21:00,1 minute,60,40.7141667,-74.0063889,light,ny
48599,atlantic ocean (bermuda),,,3/19/2002,6/15/1957 02:30,minutes,120,-14.599413,-28.673146999999997,,
48600,hartford city,flying sausers are as real as real gets,us,6/20/2005,6/15/1957 13:00,5 minutes,300,40.4511111,-85.37,disk,in
48601,walled lake,The glowing object was there one second and in a flash vanished.,us,1/19/2005,6/15/1957 23:30,30 minutes,1800,42.5377778,-83.48111109999999,cylinder,mi
48602,yonkers,venus&#39 dark side...,us,9/2/2005,6/15/1958 15:00,14 seconds,14,40.9311111,-73.8991667,light,ny
48603,menlo park,Saw noisless&#44 extremely-low clear light slowly cruise past us and over hills&#44 where &quot;encountered&quot; and newspaper-reported.,us,4/18/2012,6/15/1958 19:15,5-10 minutes,600,37.4538889,-122.18111110000001,light,ca
48604,houston,Observed disk while driving. We stopped&#44 got out and stood watching disk as it stopped directly over us. No sound or other disturbance.,us,1/28/1999,6/15/1958 20:00,45 mins,2700,29.7630556,-95.3630556,disk,tx
48605,oklahoma (rural),In the summer of 1958 I was in far eastern Oklahoma with a small troop of Boy Scouts and a Scout Master. We were camped on the banks of,,9/1/2004,6/15/1958 22:00,1:20,80,35.46756,-97.516428,light,ok
48606,pawnee,I watched two Star like objects in the Eastern night sky with a smaller one moving between the two.,us,2/10/2012,6/15/1958 23:00,30 min.,1800,36.3377778,-96.8036111,light,ok
48607,mountain view,Mountain View&#44 Mo. 1960&#39s Lights with tails.,us,11/9/2002,6/15/1958 24:00,2 hours ?,7200,36.9952778,-91.70361109999999,other,mo
48608,missoula (event at superior),Twenty nights of stalking&#44 apparent abduction attempts by Grey &quot;alien&quot; creatures&#44 1959.,us,6/6/2000,6/15/1959 01:00,20 consec nights,20,46.8722222,-113.99305559999999,unknown,mt
48609,minneapolis,Silver Bullet,us,12/16/2005,6/15/1959 08:30,30seconds,30,44.98,-93.26361109999999,other,mn
48610,campbell,3 glowing disc shaped objects,us,2/24/2007,6/15/1959 10:00,10 to 12 min.,720,37.2872222,-121.9488889,disk,ca
48611,pr&iacute;ncipe (havana) (cuba),42 years ago and I don&#39t remember about the detalis below; maybe some were present.,,10/12/2001,6/15/1959 11:15,less than minute,60,1.613938,7.405692999999999,disk,
49474,cincinnati,glass like&#44you could see threw&#44craft was 20 feet in front of me&#44as i stepped closer&#44 a ramp out of the side of the craft opened up and,us,4/13/2010,6/16/1956 13:00,six hours,1200,39.1619444,-84.4569444,disk,oh
49657,galveston,It had been my habit before I opened my place of business each morning to do my early morning fishing. This one particular morning I ha,us,8/5/2001,6/17/1953 07:30,3 minutes,180,29.3011111,-94.7975,cigar,tx
49658,rantoul,We had fallen out to the parking lot awaiting marching orders to go to (chow) it was still dark and we saw a light approaching from the,us,8/5/2001,6/17/1955 07:00,10 minutes,600,40.3083333,-88.1558333,light,il
50033,san leandro,The night of Sputnik&#44 a drag race in the sky of 5+ objects stole the show for us.,us,4/16/2005,6/19/1957 21:00,1.5 minutes or so,90,37.725,-122.155,light,ca
50248,hayward,We where very close to five bright gold saucers for approx. twenty minutes.,us,9/9/2013,6/20/1947 12:00,30 minutes,1800,37.6688889,-122.0797222,circle,ca
50249,booneville,Youngster observes shiny disc-shaped craft,us,7/23/2000,6/20/1950 10:00,4 sec,4,34.6580556,-88.5666667,disk,ms
50250,galveston,Large orange-red  lowering &quot;Moon&quot; object,us,10/30/2006,6/20/1950 17:00,5 to 10 minutes,600,29.3011111,-94.7975,sphere,tx
50571,lansing (few miles northwest of&#44 in the country),It was like a star that moved&#44 it was 1952 before there was any space traffic or objects and was not an aircraft.,us,1/17/2004,6/21/1952 22:00,sew seconds,2,42.7325,-84.5555556,other,mi
50572,norwalk,It was hovering about 20 feet from the ground and hovered for about 8 minutes.,us,7/15/2005,6/21/1957 19:30,8 minutes,480,33.9022222,-118.08083329999998,disk,ca
50942,chester,My parents &amp; I &amp; my brother were walking to a resturant &amp; we saw 4 flying objects flying in formation.  My father called out to two wom,us,3/17/2004,6/22/1952 17:45,5 min.,300,39.8494444,-75.35611109999999,oval,pa
51164,lorton,My Mother heard what she believed was a UFO.,us,11/8/2003,6/23/1954 02:00,minutes,120,38.7041667,-77.2280556,other,va
51165,langley air force base,Object appearing larger than a full moon hovering over hangers moved at varying speeds and made 90 and 180-degree turns.,,3/16/2000,6/23/1954 23:00,30 minutes,1800,37.083507,-76.359224,circle,va
51166,beach haven park,3 women hanging clothes saw a UFO come down over bay&#44 hover for 30 sec.&#44then take off so fast it seemed to disappear.,us,1/28/1999,6/23/1955 07:00,1 minute,60,39.5975,-74.2130556,disk,nj
51167,minneapolis,Flying while in the Marine Corps in a AD Skuraider &amp; with a wing man&#44 at apprx 6&#44000 ft observed Four Red cly objects estimating at 20&#44,us,1/17/2004,6/23/1959 22:00,2 hrs,7200,44.98,-93.26361109999999,formation,mn
51401,madera,Half spherical object with portholes on the side.  Mid 1950&#39s in Central California.  Day time.,us,7/4/2012,6/24/1956 14:00,2 minutes,120,36.9613889,-120.05972220000001,sphere,ca
51614,thrifty,6-25-1954&#44 Red circle of light in Thrifty&#44 Texas.  USA.,us,3/21/2014,6/25/1954 03:30,45 seconds,45,31.8108333,-99.1316667,circle,tx
52205,globe,Rectangular shape consisting of what resembled plumbing joints connecting the four sides together hovered above us and shot straight up,us,9/2/2005,6/28/1959 13:00,5 minutes,300,33.3941667,-110.7858333,rectangle,az
52588,belton,Dark red arched acrossed southern sky at dusk in summer of 1939.,us,4/27/2004,6/30/1939 20:00,10 seconds,10,34.5227778,-82.4944444,sphere,sc
52589,ft. duschene (near),Woman&#44 20s&#44 sees round object near Ft. Duchesne&#44 UT,,5/15/2013,6/30/1944 10:00,10 minutes,600,40.288016,-109.85458999999999,disk,ut
52590,blairsden,Looked up and saw sphere or disk 30-50 feet in diameter which was white or pale green in color.,us,1/21/2008,6/30/1946 19:00,10 seconds,10,39.7811111,-120.6155556,sphere,ca
52591,index,Greenish fireball flying nearly horizontal and Greyish figure 1-2 Mo. later,us,1/10/2009,6/30/1946 21:00,30 sec,30,47.8208333,-121.55388889999999,fireball,wa
52592,baltimore,I wasn&#39t the only saw them,us,10/27/2004,6/30/1947 18:00,8 sec,8,39.2902778,-76.6125,oval,md
52593,baltimore,Two UFO&quot;S  in flight over Baltimore leaving trails no sound that influence me.,us,4/14/2009,6/30/1948 00:00,8 sec,8,39.2902778,-76.6125,oval,md
52594,knoxville,We saw a small object the size of a car shaped like a jet that hovered near the ground in 1949 or 1950.,us,3/18/2014,6/30/1949 15:00,~15 minutes,900,35.9605556,-83.9208333,other,tn
52595,lac du flambeau,saucer like disc submerging from waters&#44 disapears instantaneously&#44 water boils before submerging.,us,3/19/2009,6/30/1950 16:00,30 seconds,30,45.9697222,-89.8919444,disk,wi
52596,florence (??),Possible ufo in a western movie.  (NUFORC Note:  &quot;Rio Grande&#44&quot; with John Wayne.  Reported to NUFORC before.  PD)),us,1/21/2008,6/30/1950 17:30,2-3 seconds,3,38.3902778,-105.11805559999999,disk,co
52597,florence (??)),The move classic Rio Grand &#44 in the sean between John Wayne and Ohair where he gives her flowers UFO moves in from uper left to right b,us,1/21/2008,6/30/1950 17:30,.5 sec,0.5,38.3902778,-105.11805559999999,light,co
52598,jackson heights,While watching a movie &quot;Captain Horatio Hornblower&quot;&#44 the HMS Southerland in a battle with a French castle and four French ships&#44(about,us,12/12/2009,6/30/1951 07:00,5 seconds,5,40.7555556,-73.8858333,disk,ny
52599,birmingham,I was suddenly aware of most of the sky being filled with a white light. No sound. It moved away quickly (one to three seconds) with no,us,10/30/2006,6/30/1951 19:00,3 seconds,3,33.5205556,-86.8025,unknown,al
52600,pecos,West Texas to Carlsbad NM,us,3/19/2009,6/30/1952 03:00,1-2hrs,7200,31.4227778,-103.4927778,disk,tx
52601,new york city (bronx),We were flying kites on the roof when someone yelled look at that.A disk was(approx.the size of a dime at arms length) was sitting in t,us,1/12/2012,6/30/1952 13:00,1 minute,60,40.7141667,-74.0063889,disk,ny
52602,auburn,Early nighttime sighting of huge oval object for 1 minute.,us,2/14/2006,6/30/1952 18:30,1 minute,60,47.3075,-122.2272222,oval,wa
52603,miami,No one is able to believe,us,8/7/2011,6/30/1952 21:00,1 to 5 hours,18000,25.7738889,-80.1938889,disk,fl
52604,cleveland,The object came from the north from Canada meteor shaped fire ball with crackling sounds and a little tail and sparks glowing red and o,us,2/14/2010,6/30/1953 00:00,35sec,35,41.4994444,-81.69555559999999,fireball,oh
52605,kelso (cowlitz co. hills),Three UFO&#39s witnessed by local people in the northwest U.S. in the early 1950s still unexplained.,us,8/7/2007,6/30/1953 15:00,5 min.,300,46.1469444,-122.9072222,oval,wa
52606,hawthorne,Stationary light for several minutes (far away)&#44 takiing off suddenly at great speed.,us,10/30/2006,6/30/1954 12:00,several minutes,120,33.9163889,-118.35166670000001,light,ca
52607,pasadena,An incandescent white circular object passed over Pasadena&#44 CA and ejected a smaller version of itself.,us,4/14/2009,6/30/1954 15:00,5 minutes,300,34.1477778,-118.1436111,circle,ca
52608,uk/england,B-17 Pilot Report:  Fiery orb tracks USAF bomber on night mission; returns 30 minutes later&#44 dumbfounding pilots.,,2/7/2014,6/30/1954 23:00,several minutes,120,52.355518,-1.17432,fireball,
52609,methuen,A small light in the distance changes direction and appears to come closer.,us,12/12/2011,6/30/1954 24:00,15 minutes,900,42.7261111,-71.1913889,,ma
52610,quartz hill,childhood ufo,us,7/5/2008,6/30/1955 00:00,seconds,2,34.6452778,-118.21722220000001,disk,ca
52611,lubbock,Cigar shaped cloud and left very fast.,us,11/28/2007,6/30/1955 13:00,2 minutes,120,33.5777778,-101.85472220000001,cigar,tx
52612,dumas,1955 - Air Force jets pursue lights over small Texas community.,us,4/16/2005,6/30/1955 21:00,10 minutes,600,35.8655556,-101.97277779999999,light,tx
52613,morehead city,Mid 1950&#39s Saucer in North Carolina&#44 Multiple Witnesses.,us,4/11/2014,6/30/1955 21:00,5 minutes,300,34.7227778,-76.7263889,disk,nc
52614,willow grove,Willow Grove Naval Air Station&#44 PA.,us,4/16/2005,6/30/1956 01:00,2 hrs.,7200,40.1438889,-75.1161111,light,pa
52615,cape girardeau,Angular UFO sighted as a child,us,12/12/2011,6/30/1956 13:00,5 minutew,300,37.3058333,-89.5180556,diamond,mo
52616,new brunswick,Four Saucers&#44 over the City of New Brunswick&#44 NJ&#44 in the summer of 1956,us,4/17/2008,6/30/1956 16:00,approx. 10 minutes,600,40.4861111,-74.45222220000001,disk,nj
52617,houston,,us,2/21/2014,6/30/1956 18:30,10-15 minutes,900,29.7630556,-95.3630556,triangle,tx
52618,birmingham,Grey alien drills into my back when I was a child in the 1950&#39s,us,7/3/2013,6/30/1957 03:30,5 minutes,300,42.5466667,-83.2113889,unknown,mi
52619,new york city,glowing lights lead the way,us,2/14/2006,6/30/1957 12:00,i0min,600,40.7141667,-74.0063889,teardrop,ny
52620,burlington,Slow travel when observed&#44 followed by an abrupt direction change with unbelievable acceleration.,us,6/2/2013,6/30/1957 13:00,90 seconds,90,40.8075,-91.11277779999999,circle,ia
52621,russellville,Huge orange ball floating over Russellville&#44 Arkansas&#44 in late 50s.,us,4/12/2013,6/30/1957 18:00,10 minutes,600,35.2783333,-93.1336111,sphere,ar
52622,barker,1957  Four miles south of Barker NY&#44 6 kids&#44 1 adult saw saucer at dusk&#44 2 kids saw it again in daylight next day,us,5/15/2013,6/30/1957 20:00,3 minutes,180,43.33,-78.555,disk,ny
52623,albany,What looked like a moving star and a stationary star seemed to collide&#44 whereupon the stationary star also began to move.,us,8/30/2013,6/30/1957 21:00,around 1 minute&#44 estimate,60,37.8869444,-122.29666670000002,circle,ca
52624,dallas,vee shaped lights 7 to 11 over dallas texas in 1957  with no sound.,us,2/14/2008,6/30/1957 24:00,5 minutes,300,32.7833333,-96.8,other,tx
52625,silverdale,Cylindrical craft hovered above the house with blinking lights of multiple colors for a long duration of time.,us,1/31/2011,6/30/1958 12:00,8-9 hours,32400,47.6447222,-122.6936111,cylinder,wa
52626,conyers,Sighting of a UFO ca. 1958.,us,5/2/2011,6/30/1958 13:00,5 min.,300,33.6675,-84.01777779999999,teardrop,ga
52627,camden (penobscot bay),Mother and pre-teen son witness a silver disc crash into Penobscot Bay.,us,7/16/2006,6/30/1958 16:00,seconds?,2,44.2097222,-69.06527779999999,disk,me
52628,durham,1950&#39s  Durham&#44 KS  evening  after dark 2 bright lights going across southern sky for several seconds,us,4/18/2012,6/30/1958 21:30,several seconds,2,38.4861111,-97.2277778,light,ks
52629,thibodaux,Historical Sighting  I have related this many times&#44 but never committed it to writing until now. I was motivated to write this by the,us,1/21/2008,6/30/1958 23:00,90 seconds,90,29.7955556,-90.8227778,fireball,la
52630,north atlanticocean,unidentified radar contact over Atlantic Ocean,,11/21/2010,6/30/1959 02:30,30 min,1800,35.746512,-39.462891,unknown,
52631,campbellsport,I was a radar operator at Fallon NAS&#44 we were a parasite unit of the air force. We got a call from the Navy control tower to check out,us,6/12/2008,6/30/1959 14:00,20 min,1200,43.5977778,-88.27888890000001,circle,wi
52632,new york city (bronx),My husband and I didn&#39t believe in UFO&#39s until we actually saw one&#33,us,7/19/2010,6/30/1959 20:00,approx. 1/2 hr.,1200,40.7141667,-74.0063889,oval,ny
52633,phoenix,1959 Saucer shaped object sighting Phoenix Arizona,us,6/23/2010,6/30/1959 21:00,<1 minute,60,33.4483333,-112.07333329999999,disk,az
53270,jasper,MIDDAY OVAL SHAPE&#44 ANITQUE COLOR OBJECT SITTING HALF WAY BETWEEN TALL PINE TREES AND THE GROUND.,us,6/20/2005,6/3/1951 13:00,5 minutes,300,35.2013889,-77.2069444,oval,nc
53573,elmore,Me and my cousins where playing near morter creek&#44 near elmore &#44out in woods.A disk shaped sphere came out of sky and  it was hover,us,10/7/2003,6/5/1956 24:00,1 hour,3600,32.5386111,-86.315,sphere,al
53574,arvada,small round one over Rocky Flats at high altitude in 1959,us,8/5/2009,6/5/1959 13:00,60 minutes,3600,39.8027778,-105.08694440000001,circle,co
53765,france,I was part of the 8th Air force during world war two. We where on a bombing mission in the early hours of the Normandy landings our tar,,12/12/2009,6/6/1944 01:00,15-20 min,1200,46.227638,2.213749,cigar,
53766,mount pinos (beyond ski area parking),2 ufos seen over mt pinos&#44  people in sleeping bags gone in morning&#44 airline pilots on ground see objects also,,10/8/2007,6/6/1951 02:00,2 hours,7200,34.811645,-119.14733000000001,disk,ca
53767,evergreen,Childhood abduction and mental and visual encounters through out life.,us,6/4/2004,6/6/1952 13:00,5hrs,18000,39.6333333,-105.31666670000001,disk,co
53768,pensacola,orange fireball .,us,12/12/2009,6/6/1955 01:00,5minutes,300,30.4211111,-87.2169444,light,fl
53769,upper glade,Close up sighting in rural West Virginia around 1956/7,,12/12/2011,6/6/1956 12:00,5 minutes,300,38.334859,-80.776528,egg,wv
53770,akron,Akron Ohio&#44 1956&#44 Bright object similar to flying wing. 10 pm. See full description.,us,6/9/2009,6/6/1956 22:00,30 seconds + -,30,41.0813889,-81.5191667,other,oh
53771,hicksville (long island),My friend and I saw 7 perfectly circular objects fly over us. We were laying in his back yard looking up to see any shooting stars.,us,4/16/2005,6/6/1957 22:00,15 sec,15,40.7683333,-73.5255556,circle,ny
53772,cincinnati,odd shaped diamond saucer&#44light could pass threw it&#44about thirty feet long&#4415 feet high&#44three feet from touching the ground&#44glass looki,us,7/16/2006,6/6/1958 09:30,24 hours lost,86400,39.1619444,-84.4569444,diamond,oh
53773,sydney (nsw&#44 australia),In the winter months of 1958 on a clear winter night while looking at the southern cross&#44 a star formation I now know is called the Cru,au,5/13/2003,6/6/1958 18:45,45 min,2700,-33.861481,151.205475,,
54019,winston-salem,I always thought this sighting should be on an official list&#44 now&#44 60 yrs. later&#44 it is.,us,9/2/2005,6/7/1945 07:00,seconds,2,36.0997222,-80.2444444,disk,nc
54020,kensington,Reflective oval seen hovering over Washington D.C.,us,11/28/2007,6/7/1950 20:00,10 minutes,600,39.0255556,-77.0766667,oval,md
54213,france (over&#44 somewhere),light next to my b-17,,11/26/2003,6/8/1943 14:00,5 min.,300,46.227638,2.213749,light,
54214,kansas city,The ufo came from the East&#44 as I was looking North. It hovered briefly above the house across the street from me; that house was on a s,us,12/16/2005,6/8/1950 10:00,15minutes,900,39.0997222,-94.5783333,disk,mo
54587,portsmouth,1945  RED  FLICKERING  V FORMATION  CRAFTS  MOVING  EXTREEML  FAST .,us,11/26/2003,7/10/1945 01:30,3 min,180,36.8352778,-76.29861109999999,formation,va
54588,east palestine (outside of),Lights observed moving in and out of a thunderstorm,us,4/28/2001,7/10/1950 20:30,approx 5 min,300,40.8338889,-80.5405556,light,oh
54589,provo,Observed a gray&#44 saucer shaped object for 30 minutes&#44 clear blue sky&#44 no clouds&#44 hover&#44 move slowly&#44 and accelerate out of sight.,us,6/13/2002,7/10/1951 23:30,30 minutes,1800,40.2338889,-111.65777779999999,disk,ut
54590,phillipsburg,cigar shaped&#44 after nightfall&#44 Phillipsburg NJ&#44 witnesses,us,4/16/2005,7/10/1957 20:00,7 minutes,420,40.6936111,-75.1905556,cigar,nj
54591,baltimore,ON THE ABOVE DATE&#44MYSELF AND THREE OTHER BOYS HAD ENTERED THE BACK GATE OF THE CARLINS DRIVE INN THEATER TO SEE A MOVIE.  WE HAD BEEN T,us,9/6/2002,7/10/1957 22:00,1 minute,60,39.2902778,-76.6125,other,md
54592,cheektowaga,White teardrop shaped object observed during the daytime,us,3/21/2003,7/10/1958 09:00,10 -20 secs,20,42.9033333,-78.755,teardrop,ny
54890,roswell,Information,us,6/18/2004,7/11/1947 24:00,one hour,2400,33.3941667,-104.5225,,nm
55105,south kingstown,This event was related to me tonight&#44 29 December 2008&#44 by a carpenter who is working at my house here in South Kingstown&#44 RI.  After d,,1/10/2009,7/1/1944 20:00,4 minutes,240,41.447569,-71.52466700000001,sphere,ri
55106,south portland,motionless&#44 dark oblong&#44 noon sky over ocean&#44 felt Energy-Pull of Observing craft; when spotted&#44accelerated straight upwards fast,us,6/12/2008,7/1/1946 13:30,10 seconds +/-,10,43.6413889,-70.2413889,oval,me
55107,cashmere,THE SIGHTING.&#9;It was a clear&#44 summer&#8217;s evening in 1947 (or 1948 &#8211; I can&#8217;t be sure of the exact year).  The sun had just set over th,us,4/16/2005,7/1/1947 20:00,2 minutes,120,47.5225,-120.4686111,formation,wa
55108,maywood,1947 UFO sighting Date: ? sometime in early summer Time: after dark (between 7 - 9 pm) Place: Maywood IL not far from O&#8217;hare Airbase (n,us,4/16/2005,7/1/1947 20:00,2  minutes,120,33.9866667,-118.18444440000002,disk,ca
55109,wexford,I have told this to people over many years. While on school vacation at my uncles junk yard one evening I noticed on the horizon at dus,us,9/13/2002,7/1/1947 20:00,10 seconds,10,40.6263889,-80.0561111,unknown,pa
55110,fairbanks,Enormous metallic disc in Alaska sky&#44 1949.,us,12/23/2013,7/1/1949 11:00,2 minutes,120,64.8377778,-147.7163889,disk,ak
55111,marion,GEORGIA UFO GROUP Report/Tom Sheets:  Witness Debriefing-Alabama Orbs&#44 1949,us,8/24/2004,7/1/1949 16:00,under 1 minute,60,32.6322222,-87.3191667,formation,al
55112,otis orchards,Cigar shaped Disc darting back and forth (East/West)&#44 Western shores of Liberty Lake&#44 WA &amp; West&#44 @ &amp;lt; 45 degre angle to So. Horizon,us,12/23/2013,7/1/1951 03:00,~2 minutes,120,47.7005556,-117.1052778,disk,wa
55113,atlanta,As I stepped from my car I spied a really wierd trail forming in the sky over the East side of downtown Atlanta.  Being a photograher&#44,us,12/2/2000,7/1/1951 14:00,minutes,120,33.7488889,-84.3880556,,ga
55114,sebeka,Silver donut shape object sighted over rural Minnesota.,us,12/12/2011,7/1/1952 15:00,30 min,1800,46.63,-95.0886111,other,mn
55115,detroit,object sits stationary for 5 minutes and then accelerates out of sight in 5 seconds.,us,10/31/2003,7/1/1952 22:00,5 minutes,300,42.3313889,-83.0458333,sphere,mi
55116,colorado springs (mtsn nw of),Absolutely huge UFO hovered 40 feet above house in total silence before instantly disappearing without a trace.,us,7/25/2004,7/1/1953 05:30,10 seconds,10,38.8338889,-104.8208333,disk,co
55117,los angeles,In 1954&#44 I saw a red glowing disc traveling thousands of mph straight over the Los Angeles night sky.,us,2/4/2013,7/1/1954 22:00,15 seconds,15,34.0522222,-118.2427778,circle,ca
55118,carnation (on tolt river&#44 cascade mts.),1955 daytime sighting of a saucer craft by a family of four while on a picnic on a Sunday in the Cascade Mts. of Washington.  The famil,us,4/15/2000,7/1/1955 14:00,5-8 minutes,480,47.6480556,-121.91277779999999,disk,wa
55119,dierks,Cigar-shaped craft&#44 8 feet long with flashing liglhts&#44 hovering above ground,us,4/16/2005,7/1/1955 22:00,10 seconds,10,34.1191667,-94.01638890000001,cigar,ar
55120,beatrice (14 mi sw of),Large pale silver dome seen over a hill and also near the house of SE Nebraska farm.,us,7/13/2005,7/1/1956 16:00,2 minutes,120,40.2680556,-96.7466667,other,ne
55121,mullens/pineville,USAF JETS BELIEVED TO HAVE SHOT AT OR DESTROYED UFO&#39S OVER THE SKYS OF WEST VIRGINIA IN THE LATER 1950&#39S.,,1/11/2002,7/1/1957 13:00,3 minutes,180,37.58218,-81.381465,oval,wv
55122,talcott,A sphere that looked like a white light came across the horizon from West to East&#44 an Air Force Jet followed about 3-4 sec later.,us,7/5/2008,7/1/1957 13:00,10 - 15 sec.,15,37.6513889,-80.7544444,sphere,wv
55123,del rio,Owners New Car Has Paint Purned Off By UFO.,us,12/23/2002,7/1/1957 20:00,half hour,15,29.3625,-100.8963889,cigar,tx
55124,muncie,A star sized object circled the sky and then shot straight out of sight at very great speed.,us,4/27/2004,7/1/1958 21:00,5 minutes,300,40.1933333,-85.38638890000001,unknown,in
55125,strathmore,the gathering of static electricity from atmosphere by ufo alien or USA craft  possible unmaned,us,2/1/2007,7/1/1959 01:00,4 minutes,240,36.1455556,-119.05972220000001,disk,ca
55126,castle rock,Large&#44 cigar-shaped aircraft with evenly spaced windows drifted silently over the tree tops at night.,us,4/27/2007,7/1/1959 20:00,30 seconds,30,46.2752778,-122.9063889,cigar,wa
55648,morroco (4 miles south of),I WAS 12&#44 RIDING WITH AN UNCLE AUNT AND GRANDMOTHER ON US 41 MY UNCLE EXITEDLEY STATED PLANE WAS CRASHING TO THE GROUND.A FLAMING OBJEC,,3/21/2003,7/12/1954 17:30,10-15min,900,40.946146,-87.453363,changing,in
55649,wichita,Small&#44 Silent&#44 Metalic&#44 And Very &#44 Very  Fast &#33,us,7/16/2003,7/12/1956 19:00,9o sec.,90,37.6922222,-97.33722220000001,unknown,ks
55650,edmondton (canada),Object approached Edmondton&#44 Alberta Airports main hanger and flew over it low&#44 slowly and silently.,,12/7/2006,7/12/1956 21:10,20 minutes,1200,53.544389,-113.490927,circle,ab
55898,arlington,1952 green disc-shaped object circling over Washington&#44 DC area,us,1/17/2004,7/13/1952 21:00,20 min,1200,38.8902778,-77.0844444,oval,va
55899,washington&#44 d.c.,Four of us saw a ball of light come out of the sky&#44 circle a plane then shoot off out of sight.,,3/11/2006,7/13/1953 21:00,3-5 min.,300,38.907231,-77.036464,light,dc
55900,chesapeake,A silent&#44spinning daylight disc.,us,7/4/2012,7/13/1957 09:00,10 minutes,600,38.4277778,-82.4572222,disk,oh
56181,syracuse,WHILE LOOKING OUT THE SECOND STORY WINDOW OF HIAWATHA COTTAGE AT ELMCREST CHILDREN&#39S CENTER I SAW A BIG (200 FT.?) CIGAR SHAPED CRAFT O,us,1/28/1999,7/14/1947 10:30,15 minutes,900,43.0480556,-76.1477778,cigar,ny
56182,richmond,THIS  SIGHTING TOOK PLACE WHEN I WAS A CHILD. I WAS 9 1/2 yrs. old. IT was the summer vaccation for the school children .WE had been ou,us,3/19/2002,7/14/1947 11:00,30 min.,1800,37.9358333,-122.34666670000001,circle,ca
56183,sacramento,Circular object&#44 slow moving&#44 disappeared&#44 silvery contrail appeared as if the object wanted to be seen,us,11/21/2010,7/14/1956 19:30,7 minutes,420,38.5816667,-121.49333329999999,disk,ca
56436,oneida,Two children walking along highway saw unfamiliar object in sky.,us,8/5/2001,7/15/1942 01:00,two minutes,120,36.4980556,-84.5127778,rectangle,tn
56437,north tampa,A black cylindrical object appears over P-38s dog fighting,,8/5/2001,7/15/1944 13:00,3 or 4 minutes,240,28.043514,-82.44684000000001,cylinder,fl
56438,dallas,A round ball of fire .  Not a wisp of cloud. My mother and I were sitting on our back steps in the shade&#44 very hot.  This ball moved al,us,10/12/2001,7/15/1945 14:00,2 hours ?,7200,32.7833333,-96.8,sphere,tx
56439,las vegas (east of),On July 15&#44 1947 I witnessed a large saucer-shaped disk outside Las Vegas&#44 Nevada.,us,12/2/2000,7/15/1947 10:00,5 minutes,300,36.175,-115.1363889,disk,nv
56440,keeneyville,A burning particle from space experienced coincident with an unusual over flight at high altitude,us,1/21/2008,7/15/1947 12:00,five minutes,300,41.9675,-88.1202778,formation,il
56441,clintwood,In July 1947 my Dad and I were working in our corn field in Clintwood Virginia (Dickerson County). Around 3PM we looked up up see a cyl,us,3/10/2011,7/15/1947 15:00,10 seconds,10,37.15,-82.45611109999999,cylinder,va
56442,hazelton (northeast of),The Object was Huge&#44Saucer-shaped&#44beautiful silver&#44no sound&#44no exhaust-No lights as it was early afternoon.,us,8/5/2001,7/15/1947 15:00,10 min.,600,42.5963889,-114.1352778,disk,id
56443,minneapolis,July 1947 around 5 pm I saw a gray disc-like object in the sky which newscaster Cedric Adams mentioned later,us,4/16/2005,7/15/1947 17:00,19 minutes,1140,44.98,-93.26361109999999,disk,mn
56444,morehouse,Looked like airplanes without windows&#44  wings&#44 or tails.,us,5/15/2006,7/15/1947 21:00,hours,1140,36.8472222,-89.6852778,cylinder,mo
56445,san jose,The object seen that summer evening  was cheveron shaped&#44 with a blue glow  visable around the edges&#44 moving silently &amp; slowly. N-S.,us,4/27/2004,7/15/1947 21:00,2-4min ?,240,37.3394444,-121.8938889,chevron,ca
56446,ojai,UFO sighting in Ojai&#44 CA in 1948,us,1/21/2008,7/15/1948 22:00,15 minutes,900,34.4480556,-119.24194440000001,light,ca
56447,booneville,Returning home from a movie&#44 we witnessed a large craft about 75 yards behind our house&#44 hovering silently approx. 100 ft. high...,us,7/5/1999,7/15/1949 20:30,hours,900,34.6580556,-88.5666667,unknown,ms
56448,newark,As a student of astronomy&#44 this writer witnessed ufo&#39s performing astounding aerial maneuvers. Silent propulsion. Technical performance,us,5/24/1999,7/15/1950 21:30,5 min,300,40.7355556,-74.17277779999999,sphere,nj
56449,los padres national forest,Is&#39nt it fun how the Gov. tries to block things,,12/23/2002,7/15/1950 23:00,20 seconds,20,34.597241,-119.51077099999999,formation,ca
56450,spokane valley (otis orchards),UFO over the Spokane Valley 1951,us,7/4/2012,7/15/1951 14:00,2-3 hours,10800,47.6733333,-117.2383333,sphere,wa
56451,wilmington,Three flying saucers suddenly appeared  in the sky&#44 hovered&#44 darted forwarded&#44 hovered&#44 then disappeared.,us,4/16/2005,7/15/1952 12:00,1-2 minutes,120,33.78,-118.2616667,disk,ca
56452,unknown,This movie was filmed in 1952&#44 a huge year in the history of ufo sightings,,7/5/2013,7/15/1952 12:30,seconds,2,33.460706,-117.606351,disk,ca
56453,litchfield,We now cannot believe there was jets where we saw them,us,2/14/2006,7/15/1952 13:00,5 minutes,300,41.9675,-76.4305556,other,pa
56454,south gate,I was about 11 years old at the time&#44 and a friend of the same age was visiting.  We both saw what look like a halo in the sky.  Within,us,1/28/1999,7/15/1952 14:00,1 minute,60,33.9547222,-118.2111111,circle,ca
56455,north bend,old sighting (1952 0r &#3953) of daylight object seen from approximately 50 &#39.,us,2/22/2005,7/15/1952 18:30,2-3 minutes,180,47.4958333,-121.78555559999998,other,wa
56456,new york city (bronx),My friends and I were sitting on the roof of a building and saw 6 rows of 6 stars in formation then did a 90 degree turn in formation,us,4/16/2005,7/15/1952 19:00,2 minutes,120,40.7141667,-74.0063889,other,ny
56457,nashville,cylindrical object &quot;examining&quot; trees,us,9/2/2005,7/15/1953 13:00,4 to 5 minutes,300,36.1658333,-86.7844444,cylinder,tn
56458,philadelphia,I saw 2 alabaster white perfectly round objects over our ball field as they hovered over us for about an hour &#44then they were gone.,us,4/16/2005,7/15/1954 11:00,1 hour,3600,39.9522222,-75.1641667,disk,pa
56459,greenfield (rural area&#44 6 miles so.),This all occured when I was still a child and living on a farm. My mother&#44 our next door neigbor&#39s wife&#44 and myself&#44 were standing outs,us,8/16/2002,7/15/1954 14:00,5 min,300,39.785,-85.7694444,cigar,in
56460,kansas city,MISSOURI INVESTIGATORS GROUP Report:  Two brothers witness chevron-shaped object streak across sky.  PD)),us,6/12/2008,7/15/1954 21:00,3 minutes,180,39.1141667,-94.6272222,chevron,ks
56461,oakdale,Three highly luminesce objects in a &quot;V&quot; formation gliding through the black night sky.,us,8/28/2002,7/15/1954 21:00,45 seconds,45,40.7438889,-73.1391667,disk,ny
56462,bridge hampton,High speed object zig-zagging down at a 170 Degree angle - Brookhaven direction,,5/27/2003,7/15/1954 22:00,less then 1 second,1,40.937878,-72.300916,light,ny
56463,new toronto (canada),it was a white round object which was the same sizes as the full moon,ca,6/12/2002,7/15/1954 22:00,10 minutes,600,43.6,-79.5,circle,on
56464,woodland park,Orange disk in night sky,us,10/31/2003,7/15/1955 14:00,10-15 sec.,15,38.9938889,-105.0563889,oval,co
56465,yellowstone park (near south entrance),Three year old boy witnesses from back the seat of a car the approach of three flying disks.,,1/28/1999,7/15/1956 00:00,60 sec,60,44.427963,-110.58845500000001,disk,wy
56466,sugarcreek,I drove right underneath it with my truck.  There was a bright light emitting from the bottom of the saucer.  As soon as I went underne,us,4/13/2010,7/15/1956 05:00,30 seconds,30,40.5030556,-81.64111109999999,disk,oh
56467,east hampton,Saucers over Lake Pocotopaug&#44 Ct. _ Summer of 1956,us,10/30/2006,7/15/1956 24:00,2 minutes,120,41.5758333,-72.5030556,disk,ct
56468,temple city,Lights over Mt Baldy California 1957 as seen by ten honest men,us,8/16/2002,7/15/1957 12:00,15 min,900,34.1072222,-118.05694440000002,light,ca
56469,houston,broad daylight  incident in Houston about 1957,us,6/18/2004,7/15/1957 13:00,2 min,120,29.7630556,-95.3630556,diamond,tx
56470,williamsport,A small&#44 cigar-shaped object entered my field of vision while I was standing on the back porch of second-story apartment building.,us,4/15/2000,7/15/1957 14:00,2 minutes,120,41.2411111,-77.00138890000001,cigar,pa
56471,long beach,Three disks stationary in a triangle formation during the day surrounded by a mirage effect seemingly caused by heat.,us,7/4/2012,7/15/1957 15:00,2 minutes,120,33.7669444,-118.18833329999998,disk,ca
56472,denver,A supposed star&#44 at a time before there were humanly created objects in orbit&#44 which behaved very differently from the other stars.,us,8/14/2007,7/15/1957 22:00,15 minutes,900,39.7391667,-104.98416670000002,light,co
56473,kresgeville,As a child&#44 I watched a &quot;star&quot; move slowly around other stars for a period of 20 minutes,us,12/9/2000,7/15/1957 22:00,20 minutes,1200,40.8969444,-75.5033333,,pa
56474,salt  lake city,5 Silver Saucers flying from over the Salt Lake&#44 and flying over the Oquirah Mountains towards Dugway,us,4/30/2004,7/15/1957 22:00,15 min,900,40.7608333,-111.89027779999999,disk,ut
56475,kansas city,car ingulfed in red light&#44 missing time&#44 father decessed now&#44 mother now 75&#44 sister now 44&#44 and self now 54&#44 light remained for what se,us,8/10/1999,7/15/1957 23:30,3hrs +/-,10800,39.0997222,-94.5783333,light,mo
56476,novato,saw saucer in large grass field it took off straight over vehicle went into sky and dissappeared,us,1/28/1999,7/15/1958 17:30,1min30sec,90,38.1075,-122.5686111,disk,ca
56477,nort sutton (resort area near),North Sutton&#44 New hampshire July 15&#44 1959  Small cloud with blinking light in clear sky. In view for 15 seconds.,,3/19/2009,7/15/1959 12:00,15 seconds,15,43.363889,-71.939444,unknown,nh
56478,new albany,Cigar shaped object hovered in the sky,us,6/23/2004,7/15/1959 23:00,5 minutes,300,38.2855556,-85.8241667,cigar,in
57268,worcester,strange object sighted over worcester&#44ma july 1959...and in long island.ny on same day,us,6/4/2004,7/16/1959 18:00,3 minutes,180,42.2625,-71.80277779999999,other,ma
57482,dublin,My brothers farmed after dark&#44 they told my mother&#44 my mother started yelling for the kids to run out to see it.  It was located in our,us,7/4/2012,7/17/1953 22:00,30 minutes,1800,39.8122222,-85.2088889,cone,in
57973,salem,1959 Saucers-huge- pattern of four shifting high in Ohio skies-white-yellow perfectly formed-moving very fast,us,4/16/2005,7/19/1959 01:00,hour,180,40.9008333,-80.8569444,disk,oh
58163,raton/des moines,The object followed us (our car) over 40 miles and then stayed 100 feet off the ground for about 10 minutes.  It then went straight up,,3/23/2004,7/20/1947 22:00,45 min,2700,36.589778,-103.614014,oval,nm
58164,smithport,This huge craft came over the hill from Crosbe to rute 1 for about two min. It was orang then it shot away an no sound.   IN 1962  at n,us,12/12/2011,7/20/1950 21:30,two min,120,40.8358333,-78.8766667,disk,pa
58165,rock springs,Friend &amp; I retuned home from movie. We lived on a hill that over looked the desert. I looked out to the s.w. and saw this object and i,us,4/2/1999,7/20/1958 21:30,1 min,60,41.5875,-109.20222220000001,disk,wy
58724,coeur d&#39alene,Bright Orange&#44 Cigar-Shapped Object Travelling at 18&#44000 MPH,us,8/12/2008,7/2/1950 13:00,10 seconds,10,47.6777778,-116.77944440000002,cigar,id
58725,bay st. louis,It was the July 4th weekend&#44 Bay St Louis MS was deserted&#44 the nearby Movie theater and bar were closed  early&#44 and the locals had left,,3/2/2004,7/2/1950 21:00,5 1/2 hours,181800,30.308808,-89.330046,light,ms
58930,okolona,Oval UFO paces occupants in automobile for 5 minutes on major highway,us,7/23/2000,7/22/1952 09:30,5 min.,300,34.0016667,-88.75527779999999,oval,ms
58931,allendale,07/22/1958    Allendale     Ky         Light in the sky  moving very fast             lasting 5 min.   posted 10/02/05,us,10/11/2005,7/22/1959 14:30,5 minutes,300,37.3711111,-85.5830556,light,ky
59561,tacoma,Six spheres flying in formation close to an Air Force base by Tacoma Washington.,us,3/2/2004,7/25/1952 16:00,30 seconds,30,47.2530556,-122.44305559999998,sphere,wa
60724,manville,Group of lights moving across sky during daylight hours.,us,6/12/2008,7/30/1952 15:00,10 seconds,10,41.9697222,-71.4741667,sphere,ri
60725,randallstown,Two triangular slow&#44silent lowflying objects&#44each with three white lites&#44were seen in mid-l958 over Balto.Co.&#44Md.by hundreds.,us,4/16/2005,7/30/1958 22:00,4  minutes,240,39.3672222,-76.7955556,triangle,md
61196,green river,Glowing white spherical large craft (50 to 100 ft dia) travels across mountain range near Green River&#44 Wyo,us,10/15/2002,7/3/1951 12:00,5 to 7 min,420,41.5286111,-109.46555559999999,sphere,wy
61552,seattle,While walking in Woodland Park in Seattle&#44 Washington&#44 on July 4&#44 1947&#44 I looked up and saw a bright white oval object come down .,us,11/21/2010,7/4/1947 17:30,ten seconds,10,47.6063889,-122.33083329999998,oval,wa
61553,unknown,Video of Blue Angles airshow from 1953 shows two shiny saucers orbiting a common point.,,7/23/2003,7/4/1953 14:00,10 minutes,600,44.762609,-109.028474,disk,mt
61554,ogallala,Bright white light with no sound&#44 hovering&#44 very fast when leaving at Lake McConaughy,us,12/12/2009,7/4/1953 21:00,30-45 minutes,2700,41.1280556,-101.7191667,other,ne
61555,gardner lake (extreme northeastern  us),Craft desending &#44from high rate of speed to a very slow speed&#44 traveling across Gardner Lake - Landeed on east side of lake,,9/12/1999,7/4/1959 20:00,15 min.,900,44.775237,-67.361025,oval,me
62760,buchanan  (or burns),we were traveling east of burns&#44clmbing up thru a cut in the rim rocks when this object very slowely flew over the top of us&#44 some 50 f,us,8/16/2002,7/5/1929 14:00,1min,60,43.6425,-118.6275,disk,or
62761,philadelphia,Six craft observed that brought people out of their homes to look up.,us,4/16/2005,7/5/1947 11:30,3 to 5 min,300,39.9522222,-75.1641667,disk,pa
62762,tacoma,6 spheres flying in formation over military base in Tacoma Wash. the size of 747&#39s.,us,3/2/2004,7/5/1952 16:00,2 minutes,120,47.2530556,-122.44305559999998,sphere,wa
63340,keokuk,Mother sees UFO above railroad tracks in 1939.,us,9/2/2005,7/7/1939 02:00,10 minutes,600,40.3972222,-91.38472220000001,oval,ia
63341,evergreen,abducted&#44 and a lifetime of ufo experiences,us,3/2/2004,7/7/1952 10:00,4 hours,14400,39.6333333,-105.31666670000001,circle,co
63342,arlington,Daylight sighting of a Disk,us,11/26/2003,7/7/1952 13:00,15 minutes,900,32.7355556,-97.1077778,disk,tx
63343,walnut creek,I have not reported this before. I feel it should be recorderd somewhere. My friend and I used to take time-lapse photos of the stars a,us,9/29/2004,7/7/1954 20:00,5 minutes,300,37.9063889,-122.0638889,unknown,ca
63344,west columbia,3circles together&#44 very bright lighting around them and on them&#44 silver&#44 like 3 wedding rings together,us,3/4/2003,7/7/1954 22:00,abt. 10 min.,600,34.0005556,-81.035,formation,sc
63345,uk/england (rural),1955+/-&#44 multiple identical circular saucers in formation&#44 spinning&#44 slow-moving&#44 low&#44  30&#39 dia.?&#44 visual only.,,2/1/2007,7/7/1955 14:00,10 minutes,600,52.355518,-1.17432,disk,
63346,long beach,As a young man&#44 I would lay out in the yard at night and look at the sky--I often saw an object moving at night speed&#44 very high&#44 no no,us,4/26/2000,7/7/1959 23:00,45 seconds,45,33.7669444,-118.18833329999998,light,ca
63886,johnston city,I was only 13 at the time but I will never forget what  I watch on that warm July evening I&#39am 69 now,us,11/11/2003,7/9/1947 20:00,45 sec.,45,37.8205556,-88.9275,disk,il
64107,green valley,White lights 5 to 7&#44 1/4 mile away&#44 no sounds&#44 just disappeared&#44,us,5/15/2013,8/10/1947 20:00,3-5 minutes,300,44.7955556,-88.27027779999999,unknown,wi
64108,sunland / tujunga,Vehicle was observed in frontial&#44 overhead and trailing edge views as it decended from the North over the San Gabrial mountian range&#44 l,,9/2/2005,8/10/1951 01:00,4 seconds,4,34.259648,-118.308275,circle,ca
64109,bellevue,At dusk&#44 a light appeared out of the  SE sky arched down above the E horizon moved NW.,us,11/19/2012,8/10/1958 21:30,20 minutes,1200,47.6105556,-122.19944440000002,light,wa
64110,reseda,The saucer was roof high and I observed it very closely for at least 3 to 5 minutes,us,4/18/2012,8/10/1959 01:30,10 minutes,600,34.2011111,-118.53555559999998,disk,ca
64739,new york city (brooklyn),A round overing craft over neighbors roof&#44 emitting a roaring sound &#44 observed fire like a jet engine beneath,us,9/15/2005,8/1/1948 02:00,10 minutes,600,40.7141667,-74.0063889,circle,ny
64740,louisville,In 1953&#44 at the age of 3 years old I was Contacted by what is described as a &quot;GREY&quot;.  This happened in Ky in 1953.,us,10/19/2011,8/1/1950 04:00,1 minute,60,38.2541667,-85.7594444,other,ky
64741,tampa,Triangulation radar fix (USAF&#44 civil&#44 Navy).  I ordered intercept by SAC B-29.  B-29 tracked object. Central fire control system locked,us,12/2/2000,8/1/1952 21:30,2 hrs. 30 min.,9000,27.9472222,-82.45861109999998,oval,fl
64742,berkeley,Early 50&#39s sighting in Berkeley&#44 Missouri,us,1/22/2004,8/1/1953 12:00,5 minutes,300,38.7544444,-90.33111109999999,fireball,mo
64743,farmingdale,Sphere  -30 min. - Stationary&#44 bright object over Jet Factory  -1954,us,9/24/2003,8/1/1954 12:00,30+min.,1800,40.7325,-73.4458333,oval,ny
64744,dyer,I saw a silent exhaustless golden glowing slow flying triangle on a late summer afternoon In 1954 or 1955.,us,6/4/2004,8/1/1954 17:00,15 seconds+++,15,41.4941667,-87.5216667,triangle,in
64745,canton,Large&#44 silver-blue disc shaped oject which gave off high pitched sound and was slowly turning on its axis and then suddenly sped away.,us,4/16/2005,8/1/1954 21:00,30 seconds,30,41.6563889,-76.8536111,disk,pa
64746,north hollywood,Star like point of light slowly travelling across the sky in 1954,us,2/3/2012,8/1/1954 22:00,30 min,1800,34.1722222,-118.37805559999998,light,ca
64747,bradford,moving sparkling white/ yellowish/orange/flat black sphere paused 20 feet over my head,us,10/10/2011,8/1/1956 00:00,20 seconds,20,32.9947222,-86.085,sphere,al
64748,harvard,Lost time.,us,9/9/2013,8/1/1956 20:00,2-3 seconds,3,42.5,-71.58333329999999,unknown,ma
64749,arco,A surveying crew of five disturbed a landed craft that lifted up during mid day and then flew away after observing us.,us,4/13/2010,8/1/1957 12:00,three min.,180,43.6366667,-113.29944440000001,disk,id
64750,derby (new haven),Occurred during early evening hours.  LARGE UFO (witnessed by many in neighborhood) hovered over open field at end of housing project.,us,9/12/1999,8/1/1958 19:00,10 - 15 min.,900,41.3205556,-73.0894444,disk,ct
64751,golden,children see flying saucer in small East Texas town,us,5/15/2006,8/1/1959 18:00,3 seconds,3,32.7294444,-95.56277779999999,disk,tx
65226,saranac lake,6-7 Disc shaped objects.  ((REPORT FROM:  BRIAN VIKE&#44 BRITISH COLUMBIA&#44 CANADA.)),us,3/23/2004,8/12/1947 22:00,approx:6 minutes,360,44.3294444,-74.1316667,disk,ny
65598,portsmouth (uk/england),vertical lines of 5-6 crescent moons&#44 some 10+ rows in a night sky over naval base.,gb,4/16/2005,8/13/1943 22:00,10mins,600.0,50.7967,-1.083333,sphere,
65599,troy,Single star like light zigging and zagging in night sky,us,3/10/2011,8/13/1959 21:00,15 minutes,900.0,42.728333299999996,-73.6922222,unknown,ny
65600,jewett,Tumbling zig zag pattern of a shooting &quot;star&quot; observed in the Catskill Mountains&#44 NY,us,12/12/2011,8/13/1959 22:30,20 minutes,1200.0,42.2702778,-74.30333329999999,light,ny
65870,ticonderoga,UFO buzzed B-47,us,10/19/1999,8/14/1957 16:00,15 seconds,15.0,43.84861110000001,-73.42388890000001,disk,ny
65871,california (above&#44 northern part of),Red Fireball Over Califonia,,1/17/2004,8/14/1957 21:00,5 seconds,5.0,36.778261,-119.41793200000001,fireball,ca
66131,fontana,A cylinder light came on above us with no sound .,us,2/22/2002,8/15/1937 21:00,5 to 10 min,600.0,34.0922222,-117.43416670000002,light,ca
66132,unknown,1942    Louisiana    midnight     light like airplane   10-15 minutes&#44  then corkscrewing up into the atmosphere,,2/14/2008,8/15/1943 00:00,10-15 minutes,900.0,37.245443,-107.82783899999998,light,la
66133,unknown,White light at midnight traveling into outer space.,,1/30/2014,8/15/1943 00:00,10-12 minutes,720.0,37.245443,-107.82783899999998,unknown,la
66134,proctor,cigar-shaped&#44 no sound&#44 sub-sonic vibration,us,4/13/2010,8/15/1947 20:15,2 min,120.0,35.966111100000006,-94.77722220000001,cigar,ok
66135,conshohocken,my cousin (female) and friend (male)  myself (male) app. age 10-12 yrs just finnished playing ball&#44 laying on ground on our backs looki,us,9/13/2002,8/15/1948 12:00,15sec,15.0,40.0791667,-75.3019444,oval,pa
66136,excelsior,large ball of brite light above pine trees lighting up the tops of trees.Almost directly above my father who took one photo.Then object,us,11/21/2010,8/15/1949 00:00,3-5 min.,300.0,44.9033333,-93.56611109999999,circle,mn
66137,mill valley,3 lights appeared&#44 manuevering rapidly and at impossible flight angles&#44 changing formation until winking out after little more than a m,us,2/16/1999,8/15/1949 21:00,1 min. +,60.0,37.906111100000004,-122.5438889,light,ca
66138,tarrant city,Glowing large orange ball in Alabama sky August&#44 1949.,us,6/12/2008,8/15/1949 22:00,ten+ minutes,600.0,33.5833333,-86.7727778,circle,al
66139,stanfield,In 1950&#44 Eastern Oregon&#44 I saw one silver&#44 oval shaped disk hover for approximately 2 - 3 minutes before quickly accelerating away.,us,10/31/2008,8/15/1950 14:00,2 - 3 minutes,180.0,45.78055560000001,-119.2161111,disk,or
66140,altoona,This a was metalic disk object that wobbled. The reflectioin the object made is what drew our attention. Jet aircraft appeared and obje,us,9/2/2005,8/15/1951 13:00,20 min. ?,1200.0,40.5186111,-78.395,disk,pa
66141,smithson&#39s valley,2&#44500 long cigar shaped object hovered over a hill for about 20-minutes.,,10/31/2003,8/15/1952 17:00,20-30 minutes,1800.0,29.775499,-98.373667,cigar,tx
66142,prairie grove,Two observers saw silverish 30 foot disk maneuver above and below horizon at hover and supersonic speeds.,us,6/21/2000,8/15/1952 17:30,00:20,20.0,35.9758333,-94.3175,disk,ar
66143,hamilton,Silent bright light passes overhead.,us,1/17/2004,8/15/1952 22:15,8 min.,480.0,39.39944439999999,-84.56138890000001,light,oh
66144,louisville,I heard Them&#33,us,4/16/2005,8/15/1953 11:00,6 to 10 sec,10.0,38.2541667,-85.7594444,circle,ky
66145,bowleys quarters,The speed of these speres were unbelievable they held formation stationary then bursted one by one into space,us,2/22/2005,8/15/1953 21:00,3-4 min,240.0,39.3352778,-76.3905556,sphere,md
66146,puyallup,The object was hovering above the treetops over the road a short distance in front of my car...,us,4/16/2005,8/15/1954 21:00,a few seconds,2.0,47.1855556,-122.29166670000001,oval,wa
66147,eagle pass,Mr. Martin in 1955 has encounter with cigar shaped object in 1955,us,12/2/2000,8/15/1955 00:01,10 minutes,600.0,28.708888899999998,-100.4991667,cigar,tx
66148,longview,My uncle and I were standing outside on a warm summer evening.  We were talking about unions and looking up at the stars.  It was about,us,6/18/2004,8/15/1957 01:00,3 seconds,3.0,46.1383333,-122.93694440000002,triangle,wa
66149,ludlow,Black silhouetted object against glow of distant town.  Flashing light on one edge. Hovers then drops down out of sight.,us,4/2/1999,8/15/1957 01:00,5 minutes max,300.0,42.16,-72.4763889,cigar,ma
66150,exeter,UFO Incident Exeter Newhampshire 1957,us,10/28/2002,8/15/1957 21:00,3 minutes,180.0,42.9813889,-70.9483333,disk,nh
66151,monroe,OVAL SHAPE SEEN IN OR AROUN 08/1958 IN MONROE GA,us,8/5/2012,8/15/1958 14:00,2 minutes,120.0,33.7947222,-83.7133333,oval,ga
66152,roswell,The experience left everyone in a quandry&#44 and had the effect of trauma suffered.,us,12/7/2006,8/15/1959 15:00,45 min.,2700.0,33.3941667,-104.5225,unknown,nm
66153,mohave,Lites over head cut car lights and motor off.,,5/11/2005,8/15/1959 21:00,2 minutes,120.0,35.05247,-118.173965,light,ca
66876,san antonio,THE CRAFT APPEARED TO HAVE DECENDED AT AN ANGL&#44 SKIDDED OVER A HUNDRED YARDS PUSHING THE DIRT IN FRONT OF IT AND BURIED IT&#39S SELF,us,11/11/2003,8/16/1945 11:30,8-9 days,777600.0,33.917777799999996,-106.86527779999999,oval,nm
66877,smith&#39s ferry,When a disk UFO passes within a few feet of the truck cab&#44 the Air Force calls it a lost missile.,,6/3/2010,8/16/1957 21:30,10 minutes,600.0,44.30648,-116.081001,disk,id
67108,covina,It was about 1500 ft up. It just stayed there in one spot for 10 mins then was gone.,us,9/29/2004,8/17/1955 21:00,10 minutes,600.0,34.09,-117.88944440000002,disk,ca
67109,huntington,Directly over head at tree level a Massive&#44 Silent&#44 Hovering Object blocking the  night sky,us,3/19/2009,8/17/1957 23:00,1 hour,3600.0,40.883055600000006,-85.4975,triangle,in
69177,parent (canada),Capsule shaped copper coloured object hung motionless over the domestic site for approximately three or four minutes,ca,11/21/2010,8/24/1954 05:00,3-4 minutes,240.0,47.916667,-74.616667,other,qc
69421,steilacoom,AS A GIRL OF ABOUT NINE AND MY SISTER WHO WAS EIGHT AND OUR FATHER WERE DOWN AT THE WATER&#44 AT DUSK SITTING AND LOOKING OUT&#44 ALL ALONE.,us,10/7/2003,8/25/1949 19:00,15 min.,900.0,47.17,-122.6013889,disk,wa
69704,ferndown-bournemouth (uk/wales),U F O Hovering over Ferndown in Bournemouth 1954 England,,9/24/2012,8/26/1954 16:00,5 minutes,300.0,50.820142,-1.878766,disk,
71050,vandalia,Disk with light spining through it&#39s center crossed the sky from south to north in 3 min or less 8/3/57,us,1/17/2004,8/3/1957 20:00,5-min.,300.0,39.890555600000006,-84.19888890000001,disk,oh
71288,bainbridge/ port deposit,Midwatch spots Fireball headed directly toward barracks.No time to wake shipmates or get out of the way.,,10/8/2007,8/4/1957 02:00,22sec,22.0,39.629014,-76.078383,fireball,md
71767,newtown square,A round object going from bottom to top of moon in 4 seconds,us,12/12/2011,8/6/1955 19:00,4 seconds,4.0,39.9866667,-75.40138890000001,circle,pa
71768,mexico city (mexico),Direction: West to East Seven lights type foo fighter (intense white neon light) in triangle formation&#44 never ever seen speed. Due to t,,1/21/2008,8/6/1959 20:30,1 min,60.0,19.432608,-99.133208,formation,
72004,vallejo,At first we thought they were shooting stars,us,4/1/2001,8/7/1953 21:00,60 min,3600.0,38.1041667,-122.25555559999998,light,ca
72005,indianapolis,Flashing light over Indiana,us,11/21/2010,8/7/1957 01:00,1 hour,3600.0,39.7683333,-86.1580556,light,in
72266,huntington beach,MY DAD SAYS HIS AUNT AND UNCLE SAW THIS CRAFT IN 1944 OR 1945 DURING THE DAY IT HOVERED OVER THEM FOR ABOUT 5 MINUTES IN THE AREA OF BU,us,1/17/2004,8/8/1945 12:00,5 minutes,300.0,33.660277799999996,-117.99833329999998,disk,ca
72267,independence,Flaming ball of light making right angle turns seen from front porch on a hot summer&#39s night.,us,5/15/2006,8/8/1955 01:00,several hrs.,300.0,39.091111100000006,-94.4152778,fireball,mo
72268,scarborough,I was a young girl around 1958 when I saw a saucer-shaped craft on the ground in daylight resting between two sets of power lines,us,4/16/2005,8/8/1958 15:00,10 minutes,600.0,43.578055600000006,-70.32222220000001,disk,me
72548,san diego (north of&#44 at sea),At least a hundred miles out to sea&#44 a long time ago&#44 in 1957&#44 a very interesting sighting&#44 after midnight.  First report.,us,8/11/2004,8/9/1957 00:30,15 minutes,900.0,32.7152778,-117.1563889,disk,ca
72743,st. paul,3 UFO&#39s saucer-shaped with flashing lights landed in field next to me&#44 when I approached took off with great speed.,us,4/16/2005,9/10/1957 19:15,five minutes,300.0,44.944444399999995,-93.0930556,disk,mn
73293,geneva,While marching on a bivouac maneuver in (?) September 1954&#44 I caught a glimpse overhead of a disc-shaped&#44 metallic in color object that,us,10/15/2003,9/1/1954 13:00,couple of minutes,120.0,42.868888899999995,-76.9780556,disk,ny
73294,graham,Three shiny spheres over Graham Texas,us,1/10/2009,9/1/1957 16:00,30 sec,30.0,33.106944399999996,-98.5891667,sphere,tx
73295,brecksville,20 ft in diameter glowing ufo landed a few feet from my car .,us,2/1/2007,9/1/1957 23:00,3 minutes,180.0,41.3197222,-81.6269444,circle,oh
73296,fargo,Flying Saucer seen while driving home from work.,us,5/27/2003,9/1/1958 20:00,15 min,900.0,46.8772222,-96.78944440000001,disk,nd
73795,oak lawn,V-formation 5 silver disks with 1 trailing behind&#44 size of small peas high &amp; fast  heading NE  bypassing Chicago  to Indiana,us,4/16/2005,9/12/1946 24:00,15 seconds,15.0,41.7108333,-87.75805559999999,formation,il
74266,ashland,Near observations of a slow moving silent object and ground effects.,us,2/14/2008,9/14/1958 19:30,45 seconds,45.0,38.478333299999996,-82.6380556,circle,ky
74514,valley city (6.5 miles east of),Two brothers observe&#44 hear&#44 three black discs streak overhead&#44 moving from SE to NW; below high overcast. 500 Lights On Object0: Ye,us,6/12/2008,9/15/1934 15:30,5 seconds,5.0,46.923333299999996,-98.00277779999999,disk,nd
