,city,comments,country,date posted,datetime,duration (hours/min),duration (seconds),latitude,longitude,shape,state
32,houston,Sphere&#44 No lights&#44  moving through neighborhoods above tree tops&#44 over busy streets in Houston in 1980.,us,4/16/2005,10/10/1980 19:00,3 min,180,29.7630556,-95.3630556,sphere,tx
33,dallas,Strange shape shifting craft of pure light energy.,us,10/28/2002,10/10/1980 22:00,5 minutes,300,32.7833333,-96.8,unknown,tx
34,manchester,A red glowing sphere stopped and watched me.,us,11/21/2010,10/10/1980 23:30,3 to 5 min,300,42.9955556,-71.45527779999999,light,nh
35,gisborne (new zealand),gisborne nz 1982 wainui beach to sponge bay,,1/11/2002,10/10/1982 07:00,2min,120,-38.662334,178.017649,disk,
36,houston,2 experience with unkown,us,4/18/2012,10/10/1984 05:00,1 minute,60,29.7630556,-95.3630556,circle,tx
37,traverse city,translucent football seen over city airport,us,10/7/2003,10/10/1984 12:00,couple minutes,120,44.7630556,-85.6205556,other,mi
38,white plains,Saw a hugh object in sky with lights intermittently placed not making any noise traveling north in the night sky.It had no real identif,us,8/10/1999,10/10/1984 22:00,15-20 seconds,20,41.0338889,-73.7633333,formation,ny
39,leeds (uk/england),three light in the sky that led to a big black silent triangle shaped craft.,gb,3/4/2003,10/10/1985 20:25,10min,600,53.8,-1.583333,triangle,
40,holmes/pawling,Football Field Sized Chevron with bright white lights on front&#44 moving slowly with absolutely no sound,,10/8/2007,10/10/1986 20:00,3 minutes,180,41.523427,-73.646795,chevron,ny
41,milwaukee,A silent black triangular object with no lights moved over us as we walked our dog across a school playground.,us,8/7/2007,10/10/1988 18:00,10 minutes,600,43.0388889,-87.90638890000001,triangle,wi
42,new gloucester,I&#39m still afraid to look at the sky at night.,us,1/10/2009,10/10/1988 21:00,few minutes,120,43.9627778,-70.2830556,unknown,me
43,boulder,Three Stars Begin to Move Randomly&#44 Stop&#44 Change Direction&#44 Move Again&#44 And Then Vanish,us,7/16/2006,10/10/1988 22:00,1 minute,60,40.015,-105.27,light,co
44,seattle (ballard area),Two adult witnesses are stunned by the sound of an object that streaks above the home they are in.,us,4/27/2004,10/10/1988 22:45,2 sec.,2,47.6063889,-122.33083329999998,unknown,wa
45,calabasas,Unidentified object on Mulholland Highway.,us,12/14/2004,10/10/1989 00:00,approx 5 min,300,34.1577778,-118.6375,disk,ca
46,centralia,A huge triangularly shaped silent object that blotted out 25 degrees of the sky&#44 lighted by four glowing points.,us,4/27/2004,10/10/1989 21:00,1 minute,60,46.7163889,-122.95305559999998,triangle,wa
47,kranklin,Triangle seen in franklin Ky - october 1989,,5/11/2005,10/10/1989 21:00,3min,180,36.722263,-86.577218,triangle,ky
48,ashburn,Translucent Craft that makes No Sound While Moving,us,10/8/2007,10/10/1990 21:00,2 minutes,120,31.7058333,-83.6533333,triangle,ga
49,frisco,A friend and myself were standing on the shore of the Pamlico sound as we observed 4 objects moving in up and down motions for about 30,us,1/28/1999,10/10/1991 22:00,30 minutes,1800,35.235,-75.6288889,unknown,nc
50,harrisburg,We observed 3 triangular shaped high speed objects&#33,us,5/9/2003,10/10/1991 22:00,10 minutes,600,40.2736111,-76.88472220000001,triangle,pa
51,panama city,During a road trip to Panama City a friend and I witnessed a pair of luminous light formations appear and dissappear over the Gulf.,us,1/28/1999,10/10/1992 17:00,1 hour(?),3600,30.1586111,-85.66027779999999,formation,fl
52,stafford,A man emerges from a beam of light that shines on a grassy field at night and he runs towards the Texas Instruments parking lot.,us,4/18/2012,10/10/1992 18:00,10 seconds,10,29.6158333,-95.5575,unknown,tx
53,seymour,Stationary Elongated UFO 200ft above vacant field with city lights on bottom,us,10/31/2008,10/10/1992 20:15,1min. 39s,60,35.8905556,-83.7247222,cigar,tn
54,weatherford,Black or dark grey.  Too big&#44 too low&#44 too slow&#44 too quiet&#44 for a normal aircraft.,us,9/2/2005,10/10/1992 22:00,30 seconds,30,32.7591667,-97.7969444,unknown,tx
55,zlatoust (russia),I woke up at night and looked out the window near my bed. There was a huge sphere of shining light in front of our nine floor apartment,,12/14/2004,10/10/1993 03:00,20 minutes,1200,55.183333,59.65,sphere,
56,peoria,Light over Peoria&#44 IL that moves slowly&#44 stops in mid-air&#44 hovers&#44 changes colors&#44 shoots in opposite direction and disappears.,us,10/11/2005,10/10/1993 22:00,8 seconds,8,40.6936111,-89.58888890000001,light,il
57,carthage,1 object with green and red lights,us,3/21/2003,10/10/1993 23:00,less than 1 min,60,36.2522222,-85.9516667,other,tn
58,mercedies,ufo chased by fighter jet over Rio Grande Valley. Seen on news,,12/12/2011,10/10/1994 15:00,1 hour,3600,26.149798,-97.913611,cigar,tx
59,burnt hills,Giant rectangular craft (resembling an upside-down aircraft carrier) over highway near Saratoga&#44 NY.,us,10/23/2013,10/10/1994 18:30,2 minutes,120,42.9097222,-73.8955556,rectangle,ny
60,pinebergen,Round&#44 bright&#44 low flying object silently speeds West of Arkansas town at 11:30pm&#44 10/10/94.,us,2/18/2001,10/10/1994 22:00,5 seconds,5,34.1027778,-91.9922222,light,ar
61,toronto (greater toronto area) (canada),Large rusty sphere,ca,7/3/2013,10/10/1994 23:00,~1 hour,3600,43.666667,-79.416667,sphere,on
62,milwaukee,Man  on Hwy 43 SW of Milwaukee sees large&#44 bright blue light streak by his car&#44 descend&#44 turn&#44 cross road ahead&#44 strobe. Bizarre&#33,us,11/2/1999,10/10/1995 19:45,2 min.,120,43.0388889,-87.90638890000001,,wi
63,oakland,Woman repts.  bright light in NW sky&#44 suddenly approaches her&#44 flies slowly overhead.  Swept wings&#44 2 blurry lights either side.,us,11/2/1999,10/10/1995 22:40,1 minute,60,37.8044444,-122.2697222,,ca
64,higginsville,illuminated triangular craft&#44 flying at high speed from South to North,us,2/16/2000,10/10/1996 03:20,3sec,3,39.0725,-93.7169444,triangle,mo
65,lake macquarie (nsw&#44 australia),RED LIGHT WITH OTHER RED FLASHING LIGHT&#44 ONE OBJECT,,5/24/1999,10/10/1996 20:00,5 min,300,-33.093373,151.58898200000002,light,
66,charleston,Flashing object above Charleston&#44 SC,us,11/26/2003,10/10/1996 22:00,5 min,300,32.7763889,-79.9311111,light,sc
67,monroe county,Looked like it went through the hillside,us,7/8/2004,10/10/1996 22:30,1 minute,60,39.4402778,-84.3622222,cylinder,oh
68,connersville,3 differants types &#44 cluster &#44delta &#44 and one in a 3 pointed star design . followed it for six miles .,us,1/28/1999,10/10/1997 16:00,4 hours,14400,39.6411111,-85.14111109999999,delta,in
69,mesa,A small dark purple quad-thruster craft hovering 200-300 feet in the sky. 500 Lights On Object0: Yes,us,2/14/2008,10/10/1997 17:00,30 seconds,30,33.4222222,-111.8219444,sphere,az
70,bonaire,Triangular Object Sighted at Very Close Range,us,2/1/2007,10/10/1997 20:00,<5 minutes,300,32.5436111,-83.59611109999999,triangle,ga
71,austin,i was traveling northbound on state highway 105 approximately 8 miles south of Austin MN when an object came down directly above my car,us,1/28/1999,10/10/1997 21:00,1-hour,3600,43.6666667,-92.9744444,other,mn
72,hollywood,I was standing outside on Sunset Blvd. at Vine and looked straight up which I normally do not do. I saw three bright white lights in a,us,11/1/1998,10/10/1998 02:30,5 minutes,300,34.0983333,-118.32583329999999,changing,ca
73,phoenix (north part),bright green moving north to north east. it was bright green and kinda clear. quite fast too.,us,2/16/1999,10/10/1998 03:30,10 to 15 sec,15,33.4483333,-112.07333329999999,fireball,az
74,elgin,While looking up at sky I noticed a bright light hovering above the sky. then I noticed a jet airliner traveling in the same area and I,us,11/1/1998,10/10/1998 13:15,30 +/- min,1800,42.0372222,-88.28111109999999,cylinder,il
75,las vegas,White&#44 vertical cigar shape floating around in the eastern sky.,us,11/1/1998,10/10/1998 17:30,10 minutes,600,36.175,-115.1363889,cigar,nv
76,las vegas,Ufo sighting in las vegas near Area51,us,8/30/1999,10/10/1998 17:30,45min.,2700,36.175,-115.1363889,circle,nv
77,nyc/westchester area,Lights over NYC,,10/30/2006,10/10/1998 20:30,< 1 min,60,40.935998,-73.901708,triangle,ny
78,spokane (about 30 miles sw of&#44i-90&#44 maybe mm 254),Dark boomerange object seen for ten minutes hovering over the freeway with a bright light out the front that lit up the fields. No jet,us,8/5/2001,10/10/1998 20:30,10 minutes,600,47.6588889,-117.425,triangle,wa
79,mooresville,Star gazing in back yard with telescope and binos. Saw shooting star and an oblong shape of light.,us,11/1/1998,10/10/1998 20:50,2 seconds,2,35.5847222,-80.8102778,light,nc
80,st. john&#39s (canada),Started off as 3 points of intense yellow light in triangle formation - then grew larger - it becage a single egg shape - VERY bright.,ca,12/2/2000,10/10/1998 22:30,2 hours,7200,47.55,-52.666667000000004,egg,nf
81,delano,I came home from work one night and I seen a bright fire like ball go across the top ofthe mountain and it was going fast then it stopp,us,3/21/2003,10/10/1998 23:50,15 seconds,15,35.265,-84.55333329999999,fireball,tn
82,martinez,Bright objects&#44 red and green flashing lights (and a diffuse white light off to one side of the larger of the two objects)&#44 about 30 de,us,10/19/1999,10/10/1999 00:01,1 hour,3600,38.0194444,-122.13305559999999,changing,ca
83,kansas city,Orange object over city.,us,10/19/1999,10/10/1999 04:00,5-10 min.,600,39.1141667,-94.6272222,unknown,ks
84,dallas,group of   twinkling lights at high altitude,us,11/20/2001,10/10/1999 06:00,10 seconds,10,32.7833333,-96.8,other,tx
85,san diego,At 10:45 in the morning&#44 my father and I noticed a small stationary object in the sky.,us,10/19/1999,10/10/1999 11:00,1 hour,3600,32.7152778,-117.1563889,fireball,ca
86,kennewick,Standing outside saying goodby to family members and pointing to Chem-Trails,us,10/19/1999,10/10/1999 12:40,45 secs,45,46.2113889,-119.13611110000001,sphere,wa
87,hayward,Many different colored glowing  objects,us,11/20/2001,10/10/1999 20:35,60-90 sec,90,37.6688889,-122.0797222,circle,ca
88,rachel,Bright lights with incredible agility seen from mailbox at Area 51 on UFO highway in Nevada for several hourse.,us,5/24/2005,10/10/1999 21:00,3 hours,10800,37.6447222,-115.7427778,light,nv
89,humphrey,Object moving erratically in sky stopped by spot light,us,2/14/2006,10/10/1999 21:30,5 min,300,41.6916667,-97.4841667,sphere,ne
90,casey key (north end of),A large trianglual shaped craft flew from horizon to horizon as observed from the stern deck of a motor vessel,,9/19/2002,10/10/1999 22:30,several minutes,120,27.150053,-82.480653,triangle,fl
91,elgin,Object silently traveled north -northwest. It was V shaped with five orange lights on the perimeter and one white ligh in the center of,us,10/19/1999,10/10/1999 22:30,4 minutes,240,45.565,-117.9163889,chevron,or
92,lewiston,Oval shaped with lights all around it in a haze with several smaller lights flying all around it.,us,10/19/1999,10/10/1999 23:45,45 minutes,2700,44.8838889,-84.3055556,oval,mi
285,alice springs  (nt&#44 australia),Being  of light reported&#44Jesus or another messenger&#33,au,1/19/2005,10/11/1986 20:30,20 seconds,20,-23.697479,133.883621,,
286,minnetonka,White light moves west to east&#44 suddenly stops&#44 then moves south at a high rate of speed.,us,10/14/2013,10/11/1987 21:30,30 seconds,30,44.9133333,-93.5030556,light,mn
287,otto,bright blue ball of light.,us,8/19/2000,10/11/1987 23:59,60 seconds,60,38.3708333,-90.50027779999999,fireball,mo
288,kewanee,HBCCUFO CANADIAN REPORT:  Large glowing sphere was positioned almost directly overhead.,us,10/15/2003,10/11/1989 21:00,2 to 3 minutes,180,41.2455556,-89.9247222,sphere,il
289,kewanee,Reddish-orange sphere seen outside Kewanee&#44 IL,us,7/26/2002,10/11/1989 21:00,5 minutes,300,41.2455556,-89.9247222,sphere,il
290,albuquerque,Six Spheres of light move into my vision over the 92 Albuquerque Balloon Fiesta&#44then vanish straight up.,us,3/6/2001,10/11/1992 10:00,15 minutes,900,35.0844444,-106.65055559999999,sphere,nm
291,jackson,triangle UFO in jackson NJ  Countyline 526   over the old fire station next to the trailer park,us,1/29/2002,10/11/1994 02:00,5mins,300,39.7763889,-74.86277779999999,triangle,nj
292,riverside,Double white lights in chevron shape flying north to south about the size of the constellation of the Pleades&#44 covered half the sky in,us,1/28/1999,10/11/1994 04:00,4 seconds,4,33.9533333,-117.39527779999999,chevron,ca
293,new york city (brooklyn),Young man&#44 mother witness watch strange red obj. 45 deg. above horizon w/ binocular.  Obj. suddenly fades&#44 disappears from sight.,us,11/2/1999,10/11/1995 18:30,12 min.,720,40.7141667,-74.0063889,,ny
294,huntington,Young man &amp; grandfather see a &quot;large&#44 orange&#44 round or oval&quot; obj. move along horizon very fast&#44 hover&#44 move erratically.  Bizarre&#33,us,11/2/1999,10/11/1995 20:00,2 min.,120,38.4191667,-82.4452778,,wv
295,damascus,1996 SIGHTING IN DAMASCUS&#44 VA. WHILE CAMPING IN THE CHEROKEE NATIONAL FOREST.,us,9/24/2003,10/11/1996 22:00,60 sec.,60,36.6336111,-81.78388890000001,light,va
296,hafnarfjordur (iceland),playing with a jet,,6/12/2008,10/11/1997 22:00,5 min,300,64.066667,-21.95,sphere,
297,montara,Boomerang shaped lit up at the neds and center of the boomerang.,us,11/1/1998,10/11/1998 02:15,1 hour,3600,37.5422222,-122.515,other,ca
298,vega baja (puerto rico),I went out and saw this cigar shaped object&#44 high above&#44 about where the sun would be at 12 o&#39clock. I stared at it trying to identify,us,11/1/1998,10/11/1998 14:05,2 minutes,120,18.4463889,-66.3880556,cigar,pr
299,mount carmel,Bright shiny object splits in two and disappears above horizon.,us,11/1/1998,10/11/1998 14:30,10 seconds,10,36.5452778,-82.66111109999999,light,tn
300,highland,Spherical.  Red&#44 yellow&#44 and green lights.  Below clouds&#44 yet very high up.,us,11/1/1998,10/11/1998 20:30,4 hrs +,14400,39.7944444,-87.39583329999999,sphere,in
301,bar harbor (bar island crossover),My friend Steven and I were crossing over to Bar Island at low tide when we witnesses a green spherical object crossing the sky at a gr,us,11/1/1998,10/11/1998 22:40,30 seconds,30,44.3875,-68.2044444,sphere,me
302,elk grove,Greenish blue fireball streaking across horizon,us,11/1/1998,10/11/1998 22:45,4 seconds,4,38.4088889,-121.37055559999999,fireball,ca
303,montgomery,Bright light coming from back yard and a surreal sensation of forboding.,us,3/21/2003,10/11/1999 00:15,3 minutes,180,32.3666667,-86.3,light,al
304,los angeles,It was a large bright light sitting stationary in the sky. Within our atmosphere. Not a star. It did not move or change shape and was t,us,10/19/1999,10/11/1999 04:30,5min,300,34.0522222,-118.2427778,light,ca
305,somerset?,Huge pulsating red light over I-94.  High overhead&#44 moving east,,10/19/1999,10/11/1999 06:10,2 minutes,120,45.124411,-92.673537,unknown,wi
306,three rivers,While dirving to work this monday morning the 11th of October I spotted two jets flying toward the horizion. Becouse of the rising sun,us,10/19/1999,10/11/1999 07:40,10minuets,600,41.9438889,-85.6325,oval,mi
307,canby,i saw bright light come out of clouds&#44 2 aircraft came from behind and appeared to shot at the light&#44 light went back into the clouds,us,10/19/1999,10/11/1999 09:10,10 seconds,10,45.2630556,-122.69138889999999,light,or
308,parry sound (near) (canada),A silvery disk shaped object&#44 flew over an aircraft&#44 then disappeared.,ca,4/22/2003,10/11/1999 18:00,6 seconds,6,45.333333,-80.033333,disk,on
309,portville,The object was just below the tree line. The object was light up by a yellowish light with blue lights.You could see the windows in it,us,10/19/1999,10/11/1999 20:15,30 seconds,30,42.0386111,-78.34111109999999,oval,ny
310,portville,Was oval shaped had different colored lights all the way around the center of the object. The top was yellowish with windows with light,us,10/19/1999,10/11/1999 20:15,30 seconds,30,42.0386111,-78.34111109999999,oval,ny
311,portville,it was a beautiful oval shaped object that had huge windows lite with every color you can imagine.  we saw this object to the left of t,us,10/19/1999,10/11/1999 20:15,1 minute,60,42.0386111,-78.34111109999999,oval,ny
312,portville,oval shaped with colorful lights all around with huge windows lite up very colorful most beautiful thing in the sky. in valley area it,us,10/19/1999,10/11/1999 20:15,1 minute,60,42.0386111,-78.34111109999999,oval,ny
313,kirbyville (due south of),About 2030 cst I noticed what apeared to be a &quot;tumbler&quot; a flashing satellite. After observing for approx.10 min. I realized that the ob,us,10/19/1999,10/11/1999 20:35,1.5hours,5400,36.6230556,-93.1638889,other,mo
314,winnemucca,oblong&#44 extremely large and  bright object in sky&#44 going behind mountains. Object much larger than a meteorite.,us,10/19/1999,10/11/1999 21:00,seconds,2,40.9730556,-117.73472220000001,cigar,nv
315,ashland,I was looking into the sky towards the high east watching what appeared to be a passenger jet cross the sky when my periphial vision ca,us,10/19/1999,10/11/1999 21:10,30-45 sec.,45,42.1947222,-122.70833329999999,triangle,or
316,augusta,Object was at 45 degrees above southern horizon. Being stationary for 5 mins. and then executed some right angle maneuvers. Focal dista,us,11/9/1999,10/11/1999 21:30,10 mins,600,37.6866667,-96.9763889,light,ks
317,montgomery,Pinpoint of light travelled from east to west breifly then hovered for about an hour then disappeared.,us,10/19/1999,10/11/1999 21:30,1hrs,3600,30.3880556,-95.6961111,light,tx
318,eureka springs,Bright light due south&#44 traveling east extremely slowly. Bright flash given off from object every 10 seconds&#44 with a dim flash every 3,us,11/2/1999,10/11/1999 21:45,15 min.,900,36.4011111,-93.73777779999999,light,ar
319,parker&#39s lake,Flashing lights sighted out of my window,,10/19/1999,10/11/1999 22:15,10-15 min,900,37.704344,-88.426757,disk,ky
320,addison (i-355 and us 20 (lake st.),Saucer shaped object&#44with rows of red lights on bottom side; one white lighttop and bottom,us,11/9/1999,10/11/1999 22:30,10 min,600,41.9316667,-87.9888889,disk,il
552,fremont,A heavy rain night off work and was amazed how heavy it was raining&#44 awake and looking out thru my skylight. Suddenly bright overwhelmi,us,8/5/2001,10/1/1980 01:30,30 seconds,30,37.5483333,-121.9875,other,ca
553,mountainboro,Ball of Fire that changed into a cone shape.,us,7/4/2012,10/1/1980 20:00,20 seconds,20,34.1469444,-86.1305556,fireball,al
554,shirleysburg,Sometime during the late 1970-s and early 1980&#8217;s&#44 I can&#8217;t remember the time of the year.   I was in my home in rural Shirleysburg&#44 PA.,us,5/13/2012,10/1/1980 21:00,10 minutes,600,40.2977778,-77.8744444,formation,pa
555,jersey city,Blimp shaped object with extremely bright lights hovered then rapidly dashed into the night&#39s sky.,us,10/20/2005,10/1/1980 22:00,2-3 minutes,180,40.7280556,-74.0780556,cigar,nj
556,hesperia,Two people in car see green oval object and lost time,us,1/10/2009,10/1/1981 20:00,40 minutes,2400,43.5688889,-86.03944440000001,oval,mi
557,mt. sterling,Close up view of UFO after unexplained loss of time. 500 Lights On Object0: Yes,,8/5/2012,10/1/1981 20:00,one hour or more,2400,38.056468,-83.943256,disk,ky
558,swartz creek,blazing sphere across the southern sky from 1982,us,3/21/2003,10/1/1982 22:10,3 to 4 minutes,240,42.9572222,-83.8305556,fireball,mi
559,birmingham (uk/england),Firstly&#44 I was stunned and stared at the object for what seemed minutes&#44 but probably was only seconds. My first inclination was to bec,gb,4/12/2013,10/1/1983 17:00,31 years,97836000,52.466667,-1.916667,sphere,
560,ayer,Zero to top Speed Instantaneously,us,5/12/2009,10/1/1983 20:00,20 seconds,20,42.5611111,-71.5902778,unknown,ma
561,elizabeth township,My friend and I saw eight oval crafts with lights performing very unusal manuvers,,5/15/2006,10/1/1983 20:30,12minutes,720,40.256648,-79.81846800000001,oval,pa
562,tarboro,it was as large as our house...and silent enough no one inside heard a thing...nor did i,us,9/9/2003,10/1/1983 21:00,3 minutes,180,35.8966667,-77.53611109999999,disk,nc
563,waldport,Bright light of a  fast moving craft frightened me in the night on the Oregon Coast.,us,3/16/2001,10/1/1984 01:00,10 minutes,600,44.4269444,-124.0675,light,or
564,chatsworth,Light approaches at high rate of speed and makes a ninety degree turn.,us,2/24/2007,10/1/1984 20:00,45 seconds,45,34.2572222,-118.60027779999999,light,ca
565,acton,Silent&#44 very large&#44 one white headlight&#44 red lights around edges,us,4/2/1999,10/1/1984 21:00,3 min.,180,43.5341667,-70.91027779999999,triangle,me
566,brandon,triangle SHIP 60 to 80 feet high&#44SPEED 3 TO 5 MPH&#44I SAW IT ALL&#44....................,us,2/24/2007,10/1/1985 00:00,15 min,900,27.9375,-82.28611109999999,triangle,fl
567,holton,Unknown light makes 90 degree turn and disappears.,us,5/11/2005,10/1/1985 05:30,3-4 minutes,240,43.4133333,-86.0794444,light,mi
568,monroe,Years ago&#44 my husband&#39s aunt and I witnessed something very strange on the way to work early one morning. It was about 5:30am and we we,us,11/28/2007,10/1/1985 05:30,5 min,300,34.9852778,-80.5497222,sphere,nc
569,jefferson,Three lights&#44possibly single or part of object hovered over treeline changing color&#44and shape.,us,12/2/2000,10/1/1985 21:30,1 hour,3600,41.7386111,-80.77,triangle,oh
570,santa margarita/atascadero (between&#44 hwy 101),we were driving north on hwy 101 from san luis obispo to atascadero&#44 when from the west came a &quot;ufo&quot; traveling east&#44 passing over the h,,6/23/1999,10/1/1985 21:30,2 &#33/2  min.,120,35.423335,-120.618785,other,ca
571,lawrence,Red Light seen in Lawrence&#44 Kansas&#44 during Johnny Carson&#39s Monologue,us,1/10/2009,10/1/1985 22:45,< 5 minutes,300,38.9716667,-95.235,sphere,ks
572,klamath falls,BRIGHT OBJECT DROPPING &quot;FIRECRACKERS&quot; FROM IT - IT SEEMED TO KNOW I COULD SEE IT - VANISHED IN A TYPE OF EXPLOSION,us,4/27/2004,10/1/1986 01:00,45 minutes,2700,42.225,-121.78055559999999,circle,or
573,n. ridgeville,Black triangular craft with green lights hovering over the tree tops,,12/16/2005,10/1/1986 22:00,5 minutes,300,41.389491,-82.019032,triangle,oh
574,wheeling,Missing time after seeing something that looked like the Northern lights.,us,1/11/2002,10/1/1986 22:00,10 seconds,10,40.0638889,-80.72111109999999,light,wv
575,west palm beach,An &quot;out of the body&quot; experience,us,2/18/2001,10/1/1987 01:00,one hour,10,26.7052778,-80.0366667,,fl
576,victoria (canada),Large red and orange sphere&#44 balanced on a rock in 1987.,ca,10/30/2006,10/1/1987 19:00,15mins,900,46.216667,-63.483332999999995,sphere,bc
577,roseburg (7 miles northwest of),Two small glowing oval orange objects and one larger triangle craft in rural Oregon.,us,10/31/2008,10/1/1987 20:00,30 mins.,1800,43.2166667,-123.34055559999999,oval,or
578,alstead,sitting   in  a  car in a open  field&#44 keeping in mind this is in a  town where  we are in  the hills.  the  field during  the day has,us,1/19/2005,10/1/1987 21:00,30 mins.,1800,43.1488889,-72.36111109999999,fireball,nh
579,louisburg,Large black triangular object with lights on each side and at the points making no discernible noise.,us,8/5/2001,10/1/1987 23:00,3 minutes,180,36.0988889,-78.3013889,triangle,nc
580,mackay,LARGE SAUCER,us,2/14/2010,10/1/1989 16:00,2 to 3 min,180,43.9147222,-113.6125,disk,id
581,winchester (near),3 starlike objects land on 1 large orange oval object in full daylight in sight of dozens of witnesses.,us,3/11/2006,10/1/1989 18:00,5 minutes,300,37.99,-84.1797222,oval,ky
582,jacksonville,Three gold circle UFOs fly in formation&#44 warp drive away and disappear.,us,11/21/2010,10/1/1989 20:00,five minutes,300,39.7338889,-90.22888890000002,circle,il
583,pawling,Large oval craft with lights above house on north side of Route 55 between Pawling and Freedom Plains&#44 NY&#44 late 1980&#39s.,us,5/11/2005,10/1/1989 20:00,5 minutes,300,41.5619444,-73.6030556,oval,ny
584,carmichael,Black rectangular craft over carmichael.,us,7/25/2004,10/1/1989 21:30,10sec.,10,38.6172222,-121.32722220000001,rectangle,ca
585,orono,Silent Lo-flying Craft with Dome and Bright White Lights,us,11/26/2003,10/1/1989 21:30,15-20 seconds,20,44.8830556,-68.6725,disk,me
586,pateros,One Gray metal oval disc&#44 aporx. 10&#39x50&#39&#44 clear sky&#44  1 qaurter mile away,us,3/11/2006,10/1/1990 17:00,05min,300,48.0511111,-119.90222220000001,oval,wa
587,san pedro,a small light in the sky&#44 making the shape of a equiangular triangle then shooting away at a high rate of speed.,us,1/19/2005,10/1/1990 20:00,2min,120,33.7358333,-118.2913889,light,ca
588,jamestown,A row of porthole shaped lights hovering at an altitude of approx. 500 feet spanning a distance of about 1 mile.,us,4/27/2007,10/1/1990 22:15,20 minutes,1200,42.0969444,-79.2355556,light,ny
589,easley,Hockey-puck-shaped-thing.,us,2/22/2002,10/1/1991 14:45,fifteen minutes,900,34.8297222,-82.6016667,other,sc
590,wilmington,Patterned disks over southern california sky.,us,2/14/2008,10/1/1991 17:00,15 minutes,900,33.78,-118.2616667,circle,ca
591,maryville,Silver&#44 cigar shaped object north of downtown Maryville&#44 TN in or around 1991,us,9/24/2012,10/1/1991 18:00,5 minutes,300,35.7563889,-83.9705556,cigar,tn
592,little rock,Triangular arrangements of lights appearing to begin to land on freeway&#44 miltary-ish cars mobilze around it,us,8/5/2012,10/1/1991 18:30,5 minutes,300,34.7463889,-92.28944440000001,triangle,ar
593,mckenzie,I saw a saucer shaped obiect with blue&#44 red&#44 green flashing lights on the way home from college.,us,3/31/2008,10/1/1991 20:30,15 minutes,900,36.1325,-88.51861109999999,disk,tn
594,las vegas,For seven years I have kept this fairly quiet. I was walking my dog on a clear dark night where I live on the north west side of Las Ve,us,1/28/1999,10/1/1991 21:30,5 seconds,5,36.175,-115.1363889,cigar,nv
595,lafayette,A small globe descended from beneath the larger craft.,us,1/17/2004,10/1/1991 22:00,15 min.,900,34.7047222,-85.2819444,other,ga
596,echo summit (sierra at tahoe ski area),This was an object that could hover stationary and then accelerate to 2&#44000 mph or possibly much higher... it would move instantaneousl,,1/22/2000,10/1/1992 01:30,90 seconds,90,38.812963,-120.03018300000001,sphere,ca
597,dublin (near warner robins),While driving home from out-of-town&#44 I watched a dot in the sky that later hoovered over my car.,us,11/20/2002,10/1/1992 17:30,20 minutes,1200,32.5402778,-82.90388890000001,triangle,ga
598,springfield,MISSOURI INVESTIGATORS GROUP Report:  We saw a large football shaped object hovering above an apartment complex .,us,12/12/2009,10/1/1992 18:00,90 seconds,90,37.2152778,-93.2980556,egg,mo
599,longview,I observed one nite several objects flying in a kind of oval formation and change to a vee formation. There wasn&#39t any sound.,us,11/9/1999,10/1/1992 19:00,00:20,20,32.5005556,-94.74027779999999,unknown,tx
600,tempe,My friend and I saw a triangle made of smaller triangles fly over us at a low altitude.,us,1/28/1999,10/1/1993 02:00,15 minutes,900,33.4147222,-111.9086111,triangle,az
601,delaware,Lights in localized semi-rural area&#44 beams emitted&#44 possible sound&#44 possible contact&#44 video tape,us,2/14/2008,10/1/1993 20:00,2 hours,7200,40.2986111,-83.0680556,light,oh
602,pryor,Floating Light&#44 Like a Spotlight,us,11/3/2005,10/1/1993 20:00,20-30 minutes,1800,45.4297222,-108.5325,light,mt
603,pawnee,It was triangle shape with white lights at each corner of it and a large red one in the middle.,us,4/26/1999,10/1/1994 11:30,20 min,1200,36.3377778,-96.8036111,triangle,ok
604,new york city,a flying colorful disc above my car&#44 near Erie.  ((NUFORC Note:  Possible hoax??  PD)),us,6/12/2007,10/1/1994 13:13,15 seconds,15,40.7141667,-74.0063889,disk,ny
605,tylertown/mccomb (between; on hwy. 98 ),orange molten-metal&#44 crescent-shaped object paralleling car for 15 - 20 minutes,,6/12/2008,10/1/1994 17:00,20 minutes,1200,31.243787,-90.453153,changing,ms
606,chicopee,Chicopee State Park&#44 Craft seemed to be shooting balls of light or breaking up,us,12/16/2005,10/1/1994 20:00,5 minutes,300,42.1486111,-72.6083333,changing,ma
607,santa barbara,Black triangle,us,10/12/2001,10/1/1994 20:00,3 seconds,3,34.4208333,-119.69722220000001,triangle,ca
608,warsaw,Triangle shaped object hovering above the water.,us,11/28/2007,10/1/1994 21:00,10 minutes,600,38.2430556,-93.3816667,cigar,mo
609,las vegas,Bright green object in flight allmost colided with my aircraft.,us,10/15/2002,10/1/1994 23:00,5 seconds,5,36.175,-115.1363889,circle,nv
610,fredericksburg,I was driving by on the road and seen this saucer &#44 it was ON the ground near a house. I stopped down the road and got out to get a clo,us,11/20/2002,10/1/1994 23:30,5minutes,300,40.4436111,-76.4286111,disk,pa
611,iowa city,Man witnesses 2 &quot;white&quot; aircraft rendezvous at high altitude&#44 fly toward bizarre obj. approaching very fast.  Obj. &quot;sparkled.&quot;,us,11/2/1999,10/1/1995 12:00,20 sec.,20,41.6611111,-91.53,,ia
612,lake oswego,Man reports brief sighting of peculiar white object in daytime sky.  (See later sighting on same day.),us,11/2/1999,10/1/1995 14:00,5 sec.,5,45.4208333,-122.66944440000002,,or
613,lake oswego,Man reports witnessing 2 &quot;diamond-shaped objects overhead. (Second sighting on same day.),us,11/2/1999,10/1/1995 16:30,90 sec.,90,45.4208333,-122.66944440000002,,or
614,ashland,Disintegrating object.,us,10/31/2003,10/1/1995 17:00,less than 5 minutes,300,38.4783333,-82.6380556,disk,ky
615,williamsburg,Low flying rectangular object with very bright lights on all sides.,us,5/24/2005,10/1/1995 18:30,10 minutes,600,40.4619444,-78.2,rectangle,pa
616,taunton (near) (uk/england),The object was made up of a formation of small lights&#44 plus one light moving independantly  around main formation,gb,1/29/2002,10/1/1995 21:00,1 minute,60,51.021111,-3.104722,light,
617,tinley park,Sheild shaped craft spotted at outdoor concert with orange glow&#44 moivng at high speed.,us,3/11/2003,10/1/1995 22:00,20 seconds,20,41.5733333,-87.7844444,other,il
618,wantagh,Triangle with three large&#44 dim&#44 amber lights flew rapidly overhead and rotated once.,us,10/31/2008,10/1/1995 22:00,1 minute,60,40.6836111,-73.5105556,triangle,ny
619,austin,Man reports wife went out to empty trash&#44 disappears for 90 min.&#44 returns disoriented and acting strangely.,us,11/2/1999,10/1/1995 22:30,90 min.,5400,30.2669444,-97.7427778,,tx
620,dover,six light triangle in dover,us,9/24/2003,10/1/1995 23:00,10 minutes,600,43.1977778,-70.8741667,triangle,nh
621,lake berryessa,Deep Blue Sphere seen over Lake Berryessa&#44 California,,10/30/2012,10/1/1996 01:00,15 seconds,15,38.609741,-122.25404499999999,sphere,ca
622,west houston (greenridge @ westiemer rd.; near galleria),Three bright orange-white lights moving in a V formation from northeast to Southwest The center light would change position front to re,us,1/28/1999,10/1/1996 01:00,30 seconds,30,29.7630556,-95.3630556,formation,tx
623,bainbridge,Low-flying triangular object,us,10/11/2005,10/1/1996 05:30,3 minutes,180,39.2275,-83.2705556,triangle,oh
624,new york city (manhattan),Possible UFO Sighting&#44 Manhattan&#44 New York 1996,us,2/14/2008,10/1/1996 08:00,5 mintues,300,40.7141667,-74.0063889,oval,ny
625,cupertino,Metalic ball floating motionless in high winds over San Jose&#44 CA.,us,8/12/2008,10/1/1996 17:00,10 mins,600,37.3230556,-122.0311111,sphere,ca
626,safford,Antigravity flying sphere,us,10/12/2001,10/1/1996 18:00,30 sec.,30,32.8338889,-109.70694440000001,sphere,az
627,the woodlands,2 orange fireballs moving across sky ~ crazy acrobatics,us,12/12/2011,10/1/1996 22:30,2-3 minutes,180,30.1577778,-95.4891667,fireball,tx
628,bemidji,In october 1997 my dad and I seen 3 lights in the shape of a triangle tumbling over each other in Bemidji Minnesota.,us,12/3/2004,10/1/1997 00:00,10 minutes,600,47.4736111,-94.88,triangle,mn
629,garland,I had just got off of work at 1:15 a.m. I was driving down to the Hypermart USA because it was the only store open 24 hrs. I notice thi,us,11/20/2001,10/1/1997 01:20,40 seconds,40,32.9125,-96.63861109999999,rectangle,tx
630,jefferson,Rural mountain area. Tree covered hill. 1860&#39 MSL. I awoke to see a bright white light approx 1&#44500&#39 so east of my camper. The circular,us,10/2/1999,10/1/1997 03:00,05 minutes,300,42.4811111,-74.6108333,other,ny
631,oregon (rural),noisy rectangular object falling from the sky and crash landed,,5/15/2006,10/1/1997 08:00,20 seconds,20,43.804133,-120.554201,rectangle,or
632,charlotte,Cigar shaped&#44 silvery-white object @ 500-1&#4400&#39 up&#44 in a clear blue&#44 cloudless sky.  Object was silent&#44 immobile&#44 and when I glanced dow,us,1/28/1999,10/1/1997 09:00,2 minutes,120,35.2269444,-80.8433333,cigar,nc
633,green bay,Three red lights,us,4/14/2009,10/1/1997 19:00,15-20 minutes,1200,44.5191667,-88.0197222,light,wi
634,pelzer,Large&#44 black&#44 triangular&#44 object flew low and silent over South Carolina state prison yard.,us,1/10/2009,10/1/1997 19:00,3 minutes,180,34.6422222,-82.45611109999999,triangle,sc
635,hyannis,WIFE AND I DROVE ONTO START OF OUR STREET&#44 NOTICED TWO LIGHTS NOT USUALLY THERE.  STOPPED CAR&#44 GOT OUT&#44 SAW TWO CRAFTS.  NO NOISE AND H,us,6/23/1999,10/1/1997 21:00,1 minute,60,41.6527778,-70.2833333,triangle,ma
636,bourbonnais,I was traveling home from visiting my dad in Carle Hospital on 113 heading towards Custer Park&#44 IL. It was dark out I was in farm count,us,1/19/2005,10/1/1997 21:30,-1 min,60,41.1416667,-87.875,triangle,il
637,oakland,High altitude light turned&#44 dropped several Thousand feet&#44 turned and disappeared&#33,us,11/19/1998,10/1/1997 21:30,1 minute,60,43.4222222,-123.29722220000001,light,or
638,martinsville,Yellow/Orange lighted object moving from NE to SW. Very bright toy top shape with no sound. About the size of a penny held at arm reach,us,1/28/1999,10/1/1997 21:55,5 mins,300,36.6913889,-79.8727778,other,va
639,summerville,Triangular shape with lights in a V&#44 no sound&#44 very slow moving.,us,10/30/2006,10/1/1997 22:00,20 min,1200,33.0183333,-80.1758333,triangle,sc
640,lakeland,3 oval shaped reddish-orange lights flew over my house&#44 heading directly south. The lights formed a perfect triangle&#44 but flying severe,us,1/28/1999,10/1/1997 23:15,1 minute,60,28.0391667,-81.95,light,fl
641,logan,We saw 5 triangular objects moving at high altitude to the south&#44 circling each other like small birds.,us,7/5/1999,10/1/1998 00:00,a few minutes,120,41.7355556,-111.8336111,triangle,ut
642,portland,GETTING OUT OF MY CAR TO WORK&#44I SAW A WIDE GREEN STREAK OF LIGHT IN THE SOUTHWEST SKY&#44FROM SKY TO GROUND...........,us,11/1/1998,10/1/1998 00:10,5 sec,5,45.5236111,-122.675,light,or
643,st. paul,We own a farm here in St. Paul. We (my mother and I) had pulled off to the side of the road to check on some farm equipment we had in a,us,11/1/1998,10/1/1998 01:30,5 seconds,5,45.2113889,-122.97555559999999,fireball,or
644,nisqually,burnt out disk  gets ride from trucker to air force base,us,11/2/2004,10/1/1998 02:00,3 min.,180,47.0566667,-122.7,disk,wa
645,rio rancho,Sighted during the major meteor shower last year.,us,4/2/1999,10/1/1998 04:30,2 min.,120,35.2333333,-106.6638889,fireball,nm
646,bayfield,Large light object in sky with lightning storm and huge beam of light from below in  southern Colorado,us,1/3/2001,10/1/1998 05:30,30 minutes,1800,37.2255556,-107.5975,light,co
647,san francisco,Soccer Balls over SF,us,2/3/2012,10/1/1998 10:00,6-7 minutes,420,37.775,-122.41833329999999,sphere,ca
648,elgin,I can only say that I know what I saw&#44  I even took a digital picture of it.  1:30 in the afternoon&#44  clear blue sky&#44  an airplane head,us,10/19/1999,10/1/1998 13:30,20 minutes,1200,42.0372222,-88.28111109999999,disk,il
649,del mar,Fireball streaked across the sky and fizzled out 5 miles inland,us,4/2/1999,10/1/1998 16:00,4 seconds,4,32.9594444,-117.26444440000002,fireball,ca
650,la jolla (over),At dusk&#44 an orange&#44white&#44pink&#44and voilet color fireball traveled totally horizontal west to east&#44not as fast as a shooting star&#44and the,us,11/19/1998,10/1/1998 18:50,six to seven seconds,7,32.8472222,-117.27333329999999,fireball,ca
651,manchester,hovering above city landfill.  beam of light from craft to ground.,us,11/1/1998,10/1/1998 18:56,2min,120,42.9955556,-71.45527779999999,oval,nh
652,clarinda,silent and large UFO just above tree tops.,us,8/5/2009,10/1/1998 21:00,60 seconds,60,40.7419444,-95.03805559999999,triangle,ia
653,warrington (uk/england),It was a clear night&#44 the fireball was huge and you could almost hear a rumbling. It shot across the sky from left to right at an incre,gb,7/26/2002,10/1/1998 21:00,8 seconds,8,53.383333,-2.6,fireball,
654,mt sterling,3 orange fireballs in triangle formation - 1 triangle shaped craft without sound.,,11/1/1998,10/1/1998 21:02,15 minutes,900,39.987271,-90.763463,formation,il
655,ipava,An object which resmbled car headlights in the sky was spotted to SW.  A discernable craft flew directly overhead and proceeded to disa,us,11/1/1998,10/1/1998 21:15,15 min,900,40.3513889,-90.3244444,triangle,il
656,mosinee,I was driving south on U.S. Hwy 51 and I saw a craft that didn&#39t move for 5 or more minutes.  The craft also made no noise.,us,11/19/1998,10/1/1998 23:10,5 minutes,300,44.7930556,-89.7030556,other,wi
657,san antonio,Observed amber bright light decending for apx. 20 seconds.,us,10/19/1999,10/1/1999 00:30,30 seconds,30,29.4238889,-98.4933333,fireball,tx
658,oak brook,a green-blue light comes out and down out of a cloud&#44 and goes back into the cloud,us,5/14/2002,10/1/1999 01:00,i minute,60,41.8327778,-87.9288889,light,il
659,portland,looking west the object appeared approx near the top of our atmosphere. It was huge&#33 It at first just seemed to appear out of thin air.,us,11/2/1999,10/1/1999 04:00,15-25 seconds,25,45.5236111,-122.675,light,or
660,elyria,The front was shaped like a triangle&#44 with two lights on the wing tips. Blueish-gray in color...Low rumbling sound&#44 Moving very slow. ,us,10/2/1999,10/1/1999 04:40,5or more minutes,300,41.3683333,-82.1077778,triangle,oh
661,new york city (manhattan),I witnessed a being in the middle of the day in Manhattan about six and a half feet&#44 its face definately not human?,us,2/18/2001,10/1/1999 17:00,5 seconds,5,40.7141667,-74.0063889,unknown,ny
662,norman,Soundless cigar shaped object(s) transited South to North. Weather- clear&#44 unlimited visibility&#44 near 70 degrees F.,us,10/19/1999,10/1/1999 18:12,2 min,120,35.2225,-97.4391667,cigar,ok
663,las vegas,A moving object which possibly changed speed and direction in an unorthodox manner,us,10/2/1999,10/1/1999 19:00,app. 15 seconds,15,36.175,-115.1363889,light,nv
664,nellis air force base (50-100 miles east of),On Friday October 1 around 7 in the evening I was driving south and about 50 miles east of Nellis Air Force base.I noticed an bright ob,,11/17/1999,10/1/1999 19:00,3 minutes,180,36.241416,-115.050807,light,nv
665,miami,Red and Green light in the sky.,us,10/19/1999,10/1/1999 20:00,25 sec.,25,25.7738889,-80.1938889,unknown,fl
666,independence,Looked up an saw tiny points of light creating the shape of a Chevron.,us,10/19/1999,10/1/1999 22:05,15 seconds,15,39.0911111,-94.4152778,chevron,mo
667,blankenberge (belgium),upside down V formation of 9 birght lights on high altitude changed to M formation in less than a second,,4/8/2002,10/1/1999 23:00,10 seconds,10,51.312374,3.132768,formation,
995,pearlington,While fishing on the east pearl river which seperates la./ms. north of i10 near stennis we saw a white round light just above the trees,us,12/12/2013,10/12/1982 05:30,20 seconds,20,30.2463889,-89.61111109999999,light,ms
996,pearlington,Round light which was observed going into space with moves and silence that we have never seen before.,us,12/12/2013,10/12/1982 05:30,29 seconds,29,30.2463889,-89.61111109999999,light,ms
997,swansboro,My sister and I observed a disk for about 5 minutes hovering approximately 120 feet away.,us,12/2/2000,10/12/1985 23:45,23:45 - 23:50,300,34.6875,-77.1194444,disk,nc
998,melbourne (vic&#44 australia),Large cigar shaped craft&#44flying sideways&#44over bay&#44toward&#39s our car.,au,9/29/2004,10/12/1988 16:30,15 min&#39s,900,-37.813938,144.963425,cigar,
999,schenectady,I had just picked up my Daugther (2yrs old) from my Mother-in-Laws and was on my way home it was a clear cold crisp day with the leaves,us,4/1/2001,10/12/1994 11:55,a few minutes,120,42.8141667,-73.94,other,ny
1000,monticello,Triangular/chevron small object with fixed lights at corner--very fast moving.,us,10/30/2006,10/12/1994 15:00,1-2 minutes,120,36.8297222,-84.8491667,chevron,ky
1001,okeechobee,close encounter of the fifth kind - detailed information was given via ELF wave and four books written with schematics/drawnings.,us,1/24/2014,10/12/1994 21:00,unknown - hours,120,27.2436111,-80.83,disk,fl
1002,pueblo,3 Triangular craft passed directly overhead.  They were flying in a &quot;V&quot; formation at low altitude. There was no sound. These objects we,us,11/19/1998,10/12/1995 20:30,10 sec.,10,38.2544444,-104.60861109999999,triangle,co
1003,poole (uk/england),UFO Sighted in Poole&#44 Dorset England,gb,3/19/2009,10/12/1997 10:30,1 minute,60,50.716667,-2.0,other,
1004,huntington beach,Sphere chased by Huntington Beach Helocopter,us,10/20/2005,10/12/1997 18:30,20 seconds,20,33.6602778,-117.99833329999998,sphere,ca
1005,white tank mountains,Saw bright light past mountains. Looked at it through binoculars. It was very large. Must have been 18 or 19 miles away. Due to it&#39s si,,1/28/1999,10/12/1997 19:00,20 minutes,1200,33.539166,-112.55841399999998,light,az
1006,kenner (34th st.),two disk like objects passed over me and my mother  objevts seemed to be a couple of thousand feet overhead,us,6/2/1998,10/12/1997 21:51,1:21min,1260,29.9938889,-90.2416667,disk,la
1007,chicago,Me and my friend were driving back from a Cubs game and we saw a red light in the sky it was moving very fast&#44 then stopped&#44 went back,us,9/19/2002,10/12/1997 22:30,5 minutes,300,41.85,-87.65,light,il
1008,franklin,Round green ball-shaped object,us,8/16/2002,10/12/1997 23:00,15 seconds,15,43.4441667,-71.6477778,other,nh
1009,miami twp.,I work as a security officer and during my outside rounds I observed a white light in the northen sky.  The weather was partly cloudy a,,2/16/1999,10/12/1998 02:00,20 min.,1200,39.612875,-84.248952,other,oh
1010,lincoln,3 Lights not as egg shaped but close&#44 thumb nail. Flying in tryangle formation flew over for 7 seconds not to close but not far away. f,us,11/1/1998,10/12/1998 04:00,11 sec,11,40.8,-96.66666670000001,egg,ne
1011,murray,It was a red light in the north west sky. it rose very slowly for about three minetes and then droped down flashing red and white.To sl,us,11/19/1998,10/12/1998 07:00,5 min.,300,40.6669444,-111.88722220000001,light,ut
1012,asheville,A MOVING RED BALL OF LIGHT.,us,4/2/1999,10/12/1998 19:00,30min,1800,35.6008333,-82.5541667,fireball,nc
1013,asheville,Red light moved slowly over Asheville&#44 dogs acted is if they were in pain.,us,5/15/2006,10/12/1998 19:00,40 min,2400,35.6008333,-82.5541667,light,nc
1014,missoula,Some of my friend and I were outside&#44 smoking when something flew over us. It looked like an airplane at first&#44 but it was to big&#44 and,us,11/23/1999,10/12/1999 01:30,1 minute,60,46.8722222,-113.99305559999999,triangle,mt
1015,albany,Two fireballs in northwest sky,us,10/19/1999,10/12/1999 05:11,2min,120,44.6366667,-123.10472220000001,fireball,or
1016,miami,Flock of Silver Ovalish Shaped Disk flying quickly through the daytime sky.,us,10/31/2008,10/12/1999 09:00,2 minutes,120,36.8744444,-94.8772222,oval,ok
1017,jersey,I was on my roof. look up i saw two gray disk like abjects . .no lights just at a dead stop.,,7/5/2008,10/12/1999 10:30,3 min,180,49.214439,-2.13125,disk,nj
1018,breezewood,3 balls of light were in the sky. They were in a triangle formation&#44 I heard that it might have been one ship with three lights.,us,2/27/2000,10/12/1999 12:07,1 hour,3600,39.9991667,-78.2388889,fireball,pa
1019,scottsdale,I witnessed a extremely white bright cigar shaped light in the west/soutwestern sky&#44 low on the horizon. It moved slowly from south to,us,10/19/1999,10/12/1999 17:15,10 minutes,600,33.5091667,-111.89833329999999,cigar,az
1020,palominas (near ft. huachuca),V shaped light pattern but craft was pyrymid shape and demention. Huge size of shopping mall made no sound&#44 escorted by 1/2 hours worth,us,10/19/1999,10/12/1999 20:00,10 minutes,600,31.3797222,-110.1177778,triangle,az
1021,minnesota (central&#44 rural),observed two chevron crafts hovering 225 &amp; 300 feet. aprox. 500 feet from my location. They were directly to my west&#44 and also observed,,10/19/1999,10/12/1999 21:33,90 seconds,90,46.729553,-94.6859,chevron,mn
1022,port townsend,3 satellites forming a perfect isosceles triangle shape&#44 moving in complete unison from the NW to the SE and turning to the South.,us,10/19/1999,10/12/1999 21:35,5 minutes,300,48.1172222,-122.75916670000001,triangle,wa
1023,phoenix,Phoenix police dept. helicopters (2) and crew observe orange fireball that circles their craft. Report at first denied by PPD then ackn,us,2/23/2000,10/12/1999 22:00,10 minutes?,600,33.4483333,-112.07333329999999,fireball,az
1024,tulsa,It was maybe 500ft above me&#44 no lights&#44 traveling VERY slow&#44  and completely silent.,us,10/31/2008,10/12/1999 22:15,30 seconds,30,36.1538889,-95.9925,other,ok
1025,little falls (north of),Two bright amber lights. About 300 to 500 feet up. One slightly lower.,us,11/17/1999,10/12/1999 23:00,1 hour,3600,45.9763889,-94.3622222,formation,mn
1026,norwark,I saw a white object shoot across the sky at about 50-100 feet high. Looked like a comet&#44 but was way to close to the ground and was tr,,11/2/1999,10/12/1999 23:00,1 minute,60,41.117744,-73.408158,fireball,ct
1228,rising sun,These were four brightly luminous objects observed in the broad daylight.  They were lined up in a row-vertically.  They were all spher,us,5/24/1999,10/13/1990 16:00,10 minutes,600,39.6977778,-76.0630556,sphere,md
1229,death valley,Large Black Triangle emits flares&#44 watched for over 20 min.  Very ironic circumstances,,2/24/2007,10/13/1992 17:20,20. min,1200,36.505389,-117.079408,triangle,ca
1230,farmington,I spotted what I thought was a bright landing light of a larger than usual aircraft for our airport.,us,4/2/1999,10/13/1994 19:30,2 min,120,37.7808333,-90.4216667,cylinder,mo
1231,crescent city,Woman goes outside to retrieve paper&#44 sees &quot;some lights&quot; hovering above ocean.  White lights turn red&#44 begin zigzagging&#44 stopped.,us,11/2/1999,10/13/1995 05:50,10 min.,600,41.7561111,-124.20055559999999,,ca
1232,new york city,Late one evening&#44 on my way home from work&#44 I ran into a few old friends. We started talking about the good old days and hours passed w,us,3/21/2003,10/13/1995 06:30,1 minute,60,40.7141667,-74.0063889,light,ny
1233,tacoma,Woman repts. 5-6 &quot;rocket ship-shaped things&#44 w/sparks flying out back end&#44&quot; flying down vert.out of the night sky. Good rept.,us,11/2/1999,10/13/1995 20:00,3 min.,180,47.2530556,-122.44305559999998,,wa
1234,meridith,4 rectagler lights 50 foot apart in a streight horizonal line&#44 low huming noise,,10/28/2002,10/13/1995 22:30,3 minutes,180,44.130575,-84.60724,light,mi
1235,reno,At 3:19 am&#44 bright light seen outside window and then one small tugboat triangular shaped aircraft seen over the house and then both oc,us,3/7/1998,10/13/1996 03:19,40 min.,2400,39.5297222,-119.81277779999999,triangle,nv
1236,gainesville,ALIEN CONTACT THROUGH DREAMS,us,1/28/1999,10/13/1996 06:00,hour,2400,29.6513889,-82.325,circle,fl
1237,astoria (outside of),large metallic object crashed in woods in astoria oregon.,us,8/16/2002,10/13/1996 15:00,30 seconds,30,46.1880556,-123.83,circle,or
1238,odessa,We saw a huge diamond shaped object hovering over us.,us,7/29/2000,10/13/1996 19:47,10 minutes,600,31.8455556,-102.3672222,diamond,tx
1239,encino,very large V shaped craft flys from horizon to horizon in 3 seconds&#44 very low and silent (Los Angeles),us,2/1/2007,10/13/1996 20:00,3 seconds,3,34.1591667,-118.50027779999999,triangle,ca
1240,ogden/clinton,My husband woke me up to see this. It is hard to describe because it was inside a cloud. It had an outer ring of triangular lights that,,8/5/2001,10/13/1997 05:00,3 hours,10800,41.184944,-112.014664,circle,ut
1241,reno,We saw several objects performing naneuvers that not possible for present day aircraft to accomplish. This sighting is indescribable th,us,1/28/1999,10/13/1997 20:15,60min.,3600,39.5297222,-119.81277779999999,other,nv
1242,hollister,I was walking on a county road looking at the stars as I often do When I noticed a star becoming brighter&#44 Then to my amazement it move,us,1/28/1999,10/13/1997 22:15,1-2 min.,120,36.8525,-121.40055559999999,light,ca
1243,heron state park (between dulce and taos),Watched a strange light for about an hour. During its flight&#44 it made numerous odd flight changes&#44 including bouncing up and down like,,2/16/1999,10/13/1998 02:30,approx. 1hr,3600,36.665547,-106.691032,changing,nm
1244,painesville twp,metallic sphere  sitting upon surface of lake erie. silent and shimmering rotating appearance,,10/11/2005,10/13/1998 06:00,20 minutes,1200,41.734069,-81.242025,oval,oh
1245,east kilbride (south lanarkshire) (uk/scotland),It was from a high flat window&#44 several miles away high&#44 really high up in the sky. I was scepticle as the object never moved&#44 I could,gb,11/2/1999,10/13/1999 04:28,1 hour at least,3600,55.766667,-4.1666669999999995,unknown,
1246,santa fe,while driving east something unusuall grabed my sight to the sky&#44 there was 3 objects (plus 2 fighters afar)i kept looking at them and,us,10/19/1999,10/13/1999 09:45,25 seconds,25,35.6869444,-105.93722220000001,disk,nm
1247,florence,I 75 going south.  Triangle shape.  White light on each corner.  Not moving... no sound.,us,12/16/1999,10/13/1999 17:20,10 min.,600,38.9988889,-84.6266667,triangle,ky
1248,pittsburgh,Stange Craft chased away by fighters.,us,11/16/2002,10/13/1999 18:00,approx 5 min.,300,40.4405556,-79.9961111,other,pa
1249,boscobel,A red light making smoke and stopped making smoke going east.,us,8/28/2003,10/13/1999 19:45,5 minutes,300,43.1344444,-90.70527779999999,light,wi
1250,lansing,Seen something that was not a helicopter or a plane &#44 too low&#44 too silent&#44 no sound&#44 the damn thing hovered.  Planes don&#39t do that.,us,10/19/1999,10/13/1999 22:00,10 minutes,600,42.7325,-84.5555556,circle,mi
1482,san jose,Red&#44 green and gold light amazes multiple witnesses over Santa Clara Valley,us,6/18/2003,10/14/1986 20:30,2 minutes,120,37.3394444,-121.8938889,light,ca
1483,reidsville,The craft was oval shaped&#44 with lights rotating in the middle of it and a green alien with bulging black eyes.,us,2/14/2008,10/14/1990 21:00,4 minutes,240,32.0866667,-82.1180556,oval,ga
1484,goodlettsville,I saw what looked like a large orange fireball hovering&#44 it then shrunk to the size and color of a star.,us,10/28/2002,10/14/1994 04:00,2 minutes,120,36.3230556,-86.7133333,changing,tn
1485,citra,We saw a perfect  Spherical ball of light in the sky that  wasn&#39t the moon.,us,11/21/2010,10/14/1994 19:30,2 min,120,29.4116667,-82.11,sphere,fl
1486,cornersville,Bright&#44 round&#44 white light flies over Coleman RD at night. 4 people saw that I know of. It was moving slow.,us,6/18/2003,10/14/1994 20:30,5 to 20 minutes,1200,35.3613889,-86.83972220000001,circle,tn
1487,des moines,Man repts.&quot;long silver obj.&#44 seemed to roll&#44 alternated from silver to gray.&quot;  Had a &quot;red glow&quot; near tail&#44 released gold/yellow sparks.,us,11/2/1999,10/14/1995 13:25,2 min.,120,47.4019444,-122.32305559999999,,wa
1488,belmont,One large triangle craft&#44 20 small red&#44 clear&#44 and green lighted craft,us,2/12/2004,10/14/1995 20:05,30 minutes,1800,43.0755556,-85.6091667,triangle,mi
1489,dayton,Several young people witness &quot;lime-green&#44 glowing sphere&quot; descend from W to E in N sky&#44 disappear below hor.  Other repts.,us,11/2/1999,10/14/1995 22:30,5 sec.,5,46.3238889,-117.9713889,,wa
1490,madison,Co. emerg. dispatch relays sighting of &quot;pointed&#44 oval obj.&quot; by family of 4.  When bright light dimmed&#44 &quot;spikes sticking out&quot; visible.,us,11/2/1999,10/14/1995 22:30,6 min.,360,43.0730556,-89.4011111,,wi
1491,sandpoint,Man calls to report multiple witnesses to &quot;green fireball&quot; over WA&#44 ID&#44 MT.  Very strange object&#33,us,11/2/1999,10/14/1995 22:30,20 sec.,20,48.2766667,-116.5522222,,id
1492,spokane,Empl. of KREM-TV calls regarding multiple sightings of bright green object w/ orange tail reported by multiple callers.,us,11/2/1999,10/14/1995 22:30,20 sec.,20,47.6588889,-117.425,,wa
1493,troy,Two women witness green obj&#44 &quot;size of full moon&#44&quot; fly directly toward them&#44 descend from SE.  Illuminated trees on top of mtn..,us,11/2/1999,10/14/1995 22:30,2 sec.,2,48.4633333,-115.8886111,,mt
1494,gainesville,My sister and I  both had a dream that a ufo was coming to Gainesville. They showed us around the ship&#44and the greys told us that they,us,8/30/1999,10/14/1996 03:00,30 min,1800,29.6513889,-82.325,circle,fl
1495,syracuse (north),4 Military planes fly past flying rod&#44  and information blackout still ocurring.,us,8/5/2001,10/14/1997 16:00,30 sec. max,30,43.0480556,-76.1477778,unknown,ny
1496,south eastern coast (republic of ireland),Was at a hotel on the southern coast of Ireland&#44 just enjoying the night air&#44 when a light appeared about 30 degrees off the horizon&#44,,11/1/1998,10/14/1998 01:45,5 min,300,22.564254,114.229432,chevron,
1497,winnipeg (canada),at 6:45am when l was heading off to work  my mom and l saw  5 large white spheres &#44they were moving  slowly in a circular  pattern,ca,11/2/2004,10/14/1998 06:45,1hour,3600,49.883333,-97.166667,sphere,mb
1498,otis,From WSW to ENE&#44 crescent shaped object&#44blue&#44white in color. Slower than normal meteor speed.,us,11/1/1998,10/14/1998 19:55,3 seconds,3,45.0244444,-123.9452778,other,or
1499,overton,Approx. 7:55PM on 10/14/98 while travelling North-bound from Overton&#44 NV. I witnessed what appeared to be a &quot;falling star&quot; directly Nor,us,11/1/1998,10/14/1998 19:55,10 seconds,10,36.5433333,-114.44611110000001,fireball,nv
1500,tucson,At approx. 10:00 Pm&#44 we were sitting on the porch off an upstairs bedroom facing the eastern sky.  I was standing looking at the stars,us,11/19/1998,10/14/1998 22:00,2 min.,120,32.2216667,-110.9258333,oval,az
1501,prescott,Orange lights,us,10/19/1999,10/14/1999 08:30,45 min,2700,34.54,-112.4677778,light,az
1502,yonkers,I was watching a star like object moving very slowly,us,10/19/1999,10/14/1999 14:00,5 minutes,300,40.9311111,-73.8991667,light,ny
1503,kingston (canada),I was looking straight up at my TV antenna because my cable had become disconnected from the antenna.  I saw a small bright light glidi,ca,12/2/2000,10/14/1999 16:30,30-45 seconds,45,44.233333,-76.483333,light,on
1504,el paso,I WENT TO THE BACK YARD WITH THE DOG AND LOOKED AT THE MOON AS I WAS COMING BACK TOWARD THE HOUSE. THE MOON WAS IN THE SSW OF THE SKY A,us,10/19/1999,10/14/1999 20:15,20 minutes,1200,31.7586111,-106.4863889,triangle,tx
1505,mead  (near spokane),I just let my dog out and look up and saw a blue light. I assume it was a shooting star however: It seemed to low and slow. I was looki,us,10/19/1999,10/14/1999 20:20,3 seconds,3,47.7675,-117.3538889,light,wa
1506,warrensville,husband saw a colored flash of light that stoped in the sky.we looked out and saw 1 just latter it returned with 2 others which changed,us,10/19/1999,10/14/1999 20:30,22:30,1350,36.4605556,-81.5191667,circle,nc
1507,nashville,I saw a light flash like a plane out in my back yard but it didn&#39t flash again so it caught my attention. Then it flashed again (white),us,10/19/1999,10/14/1999 22:10,11 minutes,660,36.1658333,-86.7844444,light,tn
1508,raymond,ITMOVED VERY SLOW&#44FLASHED BRIGHT PINK LIGHT&#44AND NO NOISE.,us,8/5/2001,10/14/1999 22:50,15 minutes,900,43.0361111,-71.18388890000001,triangle,nh
1801,columbus,12-15 white fireballs traveling north to south ashing off as they flew by&#44 the episode lasted 10-15 minutes over rural Columbus&#44 OH.,us,1/22/2004,10/15/1980 02:30,10 - 15 minutes,900,39.9611111,-82.99888890000001,fireball,oh
1802,guntersville,The date and time is not exact.  I was the shift supervisor at a chemical plant located on the banks of the Tennessee River.  Mountains,us,8/27/2009,10/15/1980 03:00,10 seconds,10,34.3580556,-86.29472220000001,triangle,al
1803,sandy,Unidentified flying objects Investigations,,11/21/2010,10/15/1980 14:00,1min.,60,40.5725,-111.85972199999999,sphere,ut
1804,avon,A huge lit-up craft various colors of lights at tree top level traveling at a very slow speed (10 mph) over our heads .,us,3/21/2003,10/15/1980 19:00,1 minute,60,41.8097222,-72.83111109999999,disk,ct
1805,denham springs,Flying object observed,us,9/24/2012,10/15/1980 19:00,6 minutes,360,30.4866667,-90.95611109999999,rectangle,la
1806,national forest,A green pencil-like object appeared from behind one hill only to disappear behind another. From - Fri Aug 21 11:38:01 1998 Received: fr,,1/28/1999,10/15/1980 19:00,2 minutes,120,38.145876,-104.98058200000001,cylinder,co
1807,boonville,digital rendering of sighting linked to 10/1980 &quot;Boonville&#44 Ca. 10/1980: just after dark&#44 two orange glowing spheres&#44 200 feet from gro,us,9/2/2005,10/15/1980 20:00,5 minutes,300,39.0091667,-123.365,sphere,ca
1808,jonesport,green gas sorta cloud very slow south to movement started from horison not much to say about it but it was witness at the same time by,us,9/13/2002,10/15/1980 23:00,hour or two,300,44.5327778,-67.5988889,oval,me
1809,boonville,Boonville&#44 Ca.  10/1980:  just after dark&#44 two orange glowing spheres&#44 200 feet from ground&#44  15 ft diam.&#44 40 ft apart&#44 10 mph,us,2/18/2001,10/15/1980 24:00,5 minutes,300,39.0091667,-123.365,sphere,ca
1810,stonewall (canada),I remember feeling so scared and helpless&#44 trouble breathing&#44 feeling of being abandoned.,ca,11/20/2013,10/15/1981 07:30,10 hours,36000,50.133333,-97.31666700000001,triangle,mb
1811,apache lake,UFO sighting Apache Lake in 1981during broad daylight hours.,,12/12/2009,10/15/1981 09:00,10 minutes,600,33.581892,-111.253203,egg,az
1812,beaverton,DAYTIME SIGHTING long&#44 black&#44 no features&#44 like a pencil&#44 no sound. no lights.,us,10/28/2002,10/15/1981 16:00,10 sec,10,45.4872222,-122.8025,cigar,or
1813,san jose,Town and Country Shopping Center&#44 dic shaped craft at about 20feet above the ground...around 4:30PM on a Sunday.,us,2/14/2008,10/15/1981 16:30,7 minutes,420,37.3394444,-121.8938889,disk,ca
1814,van nuys,The space craft was flying at a 45 degree angle&#44 approximatly a mile high&#44 running parallel to Van Nuy Blvd on a clear day.,us,6/23/1999,10/15/1982 14:00,20 min,1200,34.1866667,-118.44805559999999,disk,ca
1815,snoqualmine,Observed a glowing orange object about the size of a dime at arms lenght. it was dark and raining. object looked to be only a few miles,,2/12/2004,10/15/1982 18:00,15 sec,15,47.528713,-121.825391,oval,wa
1816,lake city,Light beamed over top and front of car,us,7/16/2003,10/15/1982 19:00,15 mins,900,30.1894444,-82.6394444,unknown,fl
1817,smithfield,lights were flashing and I thought to myself  &quot;there are no towers here&quot;.,us,11/3/2005,10/15/1982 19:30,1 min,60,41.9219444,-71.55,circle,ri
1818,barton,Observed very large lighted object moving and then  hovering  above a hay  field.,us,9/9/2003,10/15/1982 20:00,20 minutes,1200,44.7480556,-72.1766667,rectangle,vt
1819,north hudson,Full View of structure,us,1/17/2004,10/15/1982 20:00,1-2 minutes,120,43.9525,-73.72888890000002,disk,ny
1820,hampton,BLACK BOOMERANG SHAPED&#44 LARG E&#44NO SOUND&#44NOLIGHTS&#44TREE TOP LEVEL,us,4/27/2004,10/15/1982 20:30,2hrs 30min,9000,37.0297222,-76.3455556,chevron,va
1821,omaha,The saucer was flying high&#44 with no sound and several lights. It passed overhead.,us,12/2/2000,10/15/1982 21:00,2 minutes?,120,41.2586111,-95.9375,disk,ne
1822,narragansette,boomerang shaped object with 5 greenish lights growing in size and then turned and disappeared,,3/19/2009,10/15/1982 22:00,15 seconds,15,41.450084,-71.449503,chevron,ri
1823,crete/wilber (between),i have an old fishing cabin&#44 along with six others between crete &amp; wilber nebraska. these cabins sit about 1 mile off the main gravel r,,2/24/2001,10/15/1983 19:00,aprox 15 min,900,40.460475,-97.049844,triangle,ne
1824,california valley,Sighting&#44 Hynek class CE_II California valley&#44 Oct &#3983,us,4/18/2012,10/15/1983 24:00,5-10 min,600,35.32,-120.00583329999999,disk,ca
1825,duchenne,I know they exist it was on ground and it was not from here&#33&#33&#33&#33&#33&#33&#33&#33&#33&#33&#33&#33&#33&#33,,9/2/2005,10/15/1984 01:00,10+min,600,40.163291,-110.402933,disk,ut
1826,new castle,Oct 1984 at 8:15 am small translucent half dome shaped object,us,8/7/2011,10/15/1984 08:15,3-5 minutes,300,39.6619444,-75.5666667,other,de
1827,quincy,Object that was observered in daylight appeared silver color and had no wings and in  a few seconds disapeared.,us,1/17/2004,10/15/1984 09:00,one minute,60,39.9369444,-120.94611110000001,unknown,ca
1828,skowhegan,I was working at a church cleaning the parking lot in the evening approx 7 pm. I looked up towards the sky and I could see and object c,us,11/16/2002,10/15/1984 19:00,5 to 10 min,600,44.765,-69.7197222,disk,me
1829,albuquerque,Disc close enough to almost touch no sound or air&#44 no feet or legs cloaked until about 6&#39 from it,us,4/12/2013,10/15/1984 19:30,45 minutes,2700,35.0844444,-106.65055559999999,disk,nm
1830,strafford,I was only about 8 or 9 years old.  I had spent the weekend w/ my father &amp; step mom when they were getting ready to take me to my moms,us,4/25/2002,10/15/1984 21:00,10 inutes,600,37.2683333,-93.11694440000001,circle,mo
1831,uvalde,I cant remember very well now but i think it happened on a thursday night...i needed school paper for the folowing day and i told my pa,us,11/20/2001,10/15/1984 22:30,5-15 minutes,900,29.2094444,-99.7858333,circle,tx
1832,new boston,Controled flight. Extremely low altitude. Extremely slow speed. NO SOUND&#33 Observed at close distances.,us,10/27/2004,10/15/1984 23:00,1 hour,3600,33.4597222,-94.4152778,egg,tx
1833,san ramon,In 1985 I saw a silver saucer directly over my house in California.,us,5/2/2011,10/15/1985 00:00,5 mins,300,37.78,-121.97694440000001,disk,ca
1834,cleveland (massilon rd.&#44  montrose area),Driving on rural road AM. Cant rember month but there was no leaves on trees.  I saw a &quot;kite shaped object&quot; about the size of a two sto,us,9/19/2002,10/15/1985 07:00,15 seconds,15,41.4994444,-81.69555559999999,diamond,oh
1835,hixson,My friend and I saw three orange-red circles in a linear fashion in the sky one evening which was not moving nor making any sound.,us,2/14/2006,10/15/1985 19:00,15 minutes?,900,35.1405556,-85.2327778,other,tn
1836,hartford city,Triangle crafts over Blackford Co.,us,10/28/2002,10/15/1985 20:00,10 minutes,600,40.4511111,-85.37,triangle,in
1837,camden,Saucer shaped the length of a football field,us,10/30/2006,10/15/1985 22:00,5-10 minutes,600,34.2463889,-80.60722220000001,disk,sc
1838,orangeburg,Orangeburg&#44 S.C. to Augusta&#44 GA. - fall 1986 - lights following car - multiple witnessess.   Radio request for sighters,us,11/21/2010,10/15/1986 02:00,2-3 hours,10800,33.4916667,-80.8558333,cylinder,sc
1839,salem,Very Close Encounter.,us,1/11/2002,10/15/1986 02:30,25 minutes,1500,44.9430556,-123.0338889,cigar,or
1840,pinson,Redish orange &#44 traveling slowly and quietly&#33,us,10/31/2003,10/15/1986 14:00,abt. 10 seconds,10,33.6888889,-86.6833333,circle,al
1841,bellevue (yarrow point),The saucer hovered over us&#44 it was huge&#44 orange and silent.,us,3/19/2009,10/15/1986 18:00,1/2 hours,10,47.6105556,-122.19944440000002,disk,wa
1842,knoxville,Object traveld along side my car for a mile a close range.,us,9/9/2003,10/15/1986 19:00,25 minuites,1500,35.9605556,-83.9208333,disk,tn
1843,petaluma,Saw darting object in the night sky&#44 move fast&#44 stop&#44 move fast stop. Then it flew  low over my house and I heard the UFO.,us,7/23/2000,10/15/1986 19:00,30 minutes,1800,38.2325,-122.63555559999999,disk,ca
1844,ridgecrest,Saucer shaped UFO&#44 lights&#44 no sound&#44 20 minute observation,us,6/10/2003,10/15/1986 19:20,20 minutes,1200,35.6225,-117.67,disk,ca
1845,fayettville,a friend and i were riding home one night&#44and comeing through a patch of woods on each side of the road &#44i glanced out the passenger si,,8/5/2001,10/15/1986 21:00,30 mins,1800,35.152027,-86.570551,diamond,tn
1846,onyx,friend and i were walking home on a dark night. there was a storm building&#44 the cloud were very low. they were touching the mountain to,us,9/17/2000,10/15/1986 22:00,4 seconds,4,35.6902778,-118.2197222,fireball,ca
1847,raleigh,Huge triangle passes over oblivious&#44 sleeping capital,us,7/16/2003,10/15/1987 02:00,2 minutes,120,35.7719444,-78.63888890000001,triangle,nc
1848,burnet,Silver saucer object hovering on hill,us,12/16/2005,10/15/1987 16:00,10-20 seconds,20,30.7580556,-98.2280556,disk,tx
1849,bolingbrook,Thin black triangle&#44 moving slowly over field in suburban Chicago.,us,10/8/2007,10/15/1987 20:00,5 minutes,300,41.6986111,-88.06833329999999,triangle,il
1850,cheltenham (melbourne) (victoria) (australia),Sighting of the Mother ship &quot;UFO&quot; Charman Rd Cheltenham Vic &#44 Australia 1987-1988,au,11/20/2013,10/15/1987 21:00,10 minutes,600,-37.966667,145.066667,circle,
1851,itta bena,I saw a UFO one fall night in the shape of a golden circle.,us,11/4/2002,10/15/1987 21:00,5 min,300,33.495,-90.3197222,circle,ms
1852,osawatomie,Many colorful balls of light over Osawatomie to Canada,us,6/2/2013,10/15/1987 21:00,2+ hours,7200,38.4972222,-94.9502778,other,ks
1853,yonkers,Silent rectangular football field sized object fling at about 1000 feet with 6 groups of lights on bottom and across stern,us,9/13/2002,10/15/1987 21:00,30 minutes,1800,40.9311111,-73.8991667,rectangle,ny
1854,eastchester,huge dark dimly lit Triangle  slowly passes over  Platform Tennis  Courts in Eastchester NY,us,2/8/2005,10/15/1987 22:00,2 -3  minutes,180,40.8883333,-73.82861109999999,triangle,ny
1855,baker,bright light came out from behind a cloud and split off into 6 smaller lights leaving at a high speed,us,5/24/2005,10/15/1987 22:30,5 to 10 min,600,46.3669444,-104.2841667,light,mt
1856,greers ferry (greers ferry lake),Three moon sized objects appeared in the form of lights and lite the intire lake up and I could see a mountain about 10 miles from me&#44j,us,11/20/2002,10/15/1988 00:30,2-3 min.,180,35.5769444,-92.1772222,circle,ar
1857,ottawa (canada),...triangular in shape blotting out most of the bluff in the background&#44 the horizon and part of the night sky,ca,7/5/2005,10/15/1988 01:00,45 minutes,2700,45.416667,-75.7,triangle,on
1858,bremerton,Circular craft approximately 500 feet in diameter clearly seen at approximately 1500 feet altitude.,us,8/7/2011,10/15/1988 02:00,30 minutes,1800,47.5675,-122.63138889999999,circle,wa
1859,tacoma,Disc follows fighter jets to air base,us,2/18/2011,10/15/1988 13:00,2 minutes,120,47.2530556,-122.44305559999998,circle,wa
1860,london (uk/england),Too big to be a balloon - i haven&#39t been able to completely forget it.  Would really like an explanation.,gb,8/5/2001,10/15/1988 19:30,4 minutes,240,51.514125,-0.093689,circle,
1861,orono/bangor,Delta shaped craft seen over UMO (1988?) Oct 15 - very quiet and still to slow moving,,8/20/2001,10/15/1988 19:55,10-15 minutes,900,44.82502,-68.78090300000001,triangle,me
1862,pilot knob,I did not actually see this myself&#44 but my mother did. I was 10 years old in 1988 and I remember my mom running in the house saying she,us,12/16/2005,10/15/1988 20:00,about 15 minutes,900,37.6211111,-90.64027779999999,cigar,mo
1863,belle,Lights on a huge craft slowly going overhead. (Official explanations unacceptable),us,6/18/1998,10/15/1988 20:15,5/10 minutes,600,38.2858333,-91.72027779999999,unknown,mo
1864,loveland,Boomerang craft&#44 silent&#44 no lights&#44 walking speed,us,8/16/2002,10/15/1988 20:30,5 min,300,40.3977778,-105.07444440000002,chevron,co
1865,odessa,Driving at night on loop saw circular blinking lights.,us,5/24/1999,10/15/1988 21:00,2 min,120,31.8455556,-102.3672222,circle,tx
1866,masfield,We saw a blue/white light in the same spot for nearly 2 hours&#44 then it shot off to the north at amazing speed,,7/16/2006,10/15/1988 22:00,2 hours,7200,40.75839,-82.515447,light,oh
1867,big spring,Looking out at the night sky I caught out of my peripheral vision a streaking pastel green shooting star.,us,11/20/2001,10/15/1988 22:45,5 min,300,32.2502778,-101.4783333,other,tx
1868,hampton,thrilling &amp; terrifying.,us,5/15/2006,10/15/1989 05:00,5 min,300,37.0297222,-76.3455556,cigar,va
1869,morgantown,I was working as a DJ at WCLG in Morgantown WV.  I am sorry I dont know the date and am sorry that I am now reporting a 9 year old sigh,us,1/28/1999,10/15/1989 10:30,15 min,900,39.6294444,-79.95611109999999,triangle,wv
1870,batesville,It didn&#39t seem harmful&#44 it was like it was observing.,us,1/3/2001,10/15/1989 19:00,8 min,480,35.7697222,-91.6408333,disk,ar
1871,bloomingdale,Tennis Ball size blue sphere objects.,us,8/5/2001,10/15/1989 20:00,35 seconds,35,41.0019444,-74.3269444,sphere,nj
1872,mint hill,Triangular UFO with 3 lights on each corner. No Sound. Low Flight Pattern.,us,3/19/2009,10/15/1989 20:00,2-3 minutes,180,35.1794444,-80.6475,triangle,nc
1873,glennallen,10/15/89 Bright fast moving light over valley west of Glennallen&#44 Alaska,us,4/27/2007,10/15/1989 22:00,approx 1 hour,3600,62.1091667,-145.5463889,unknown,ak
1874,georgetown (canada),georgetown sighting  anyone else see it?,ca,2/14/2008,10/15/1989 23:00,3-4 minutes,240,46.183333,-62.533333,oval,on
1875,endwell,Triangle-shaped formation of 5-6 bright white circular objects that flew slowly from North to South with steady light and no noise,us,9/12/1999,10/15/1990 00:15,15-20 minutes,1200,42.1127778,-76.0213889,formation,ny
1876,north windham,It was a firball that made a perpendicular manuver in North Windham&#44 Maine in 10/90,us,4/28/2001,10/15/1990 03:00,5-7 min,420,43.8341667,-70.43888890000001,fireball,me
1877,las vegas (north of),strange lights north of Las Vegas,us,3/21/2003,10/15/1990 17:00,1 hour.,3600,36.175,-115.1363889,light,nv
1878,prineville (30 miles east of),Fast moving ball of light that can move at right angles.,us,2/24/2001,10/15/1990 20:00,about 4-6 seconds,6,44.3,-120.83333329999999,light,or
1879,omaha (lavista/ralston),Cigar shaped object flying level at about 750ft. Has fiery tail&#44 triangular windows&#44 fighter escort ...was called space junk by,us,9/29/2004,10/15/1990 21:00,5 min,300,41.2586111,-95.9375,cigar,ne
1880,auburn,Bright green ball of light on highway 167,us,10/11/2005,10/15/1990 21:30,5 sec,5,47.3075,-122.2272222,sphere,wa
1881,taipei city (taiwan),7 luminous objects&#44 circle shapes; 6 objects circled to be a ring and 1 object in the center. around half of the moon size,,10/12/2001,10/15/1990 21:30,30 second,30,25.091075,121.55983400000001,circle,
1882,saudi arabia,October 1990 - Saudi Arabia - large dark triangular object - 3 white lights -  20 seconds - no sound - no stars behind object,,10/20/2005,10/15/1990 22:30,15 -20 seconds,20,23.885942,45.079162,triangle,
1883,austin,UFO seen over Austin&#39s  Robert Muller Airport,us,6/18/2003,10/15/1990 23:00,4 mins,240,30.2669444,-97.7427778,other,tx
1884,snyder,Round disk with lights,us,5/15/2006,10/15/1991 03:00,5 minutes,300,32.7177778,-100.91722220000001,disk,tx
1885,wilsonville,Woman repts. seeing &quot;round&#44 flashing lights&quot; moving S to N while in hospital.,us,11/2/1999,10/15/1992 06:50,15 sec.,15,45.3,-122.7725,light,or
1886,gardnerville,Observed object bluish/white in color streaking toward the surface of earth; then change directions instantly heading back into the s.,us,1/17/2004,10/15/1992 10:15,15 seconds,15,38.9413889,-119.7486111,light,nv
1887,lubbock,The object was hidden in a cloud.,us,7/25/2004,10/15/1992 18:00,20-30 minutes,1800,33.5777778,-101.85472220000001,cigar,tx
1888,miami/keys,UFO checked us out  on the water at night while cruising to Miami&#44 Oct 1992,,9/2/2005,10/15/1992 21:00,30 minutes,1800,27.838145,-80.485438,light,fl
1889,cincinnati,Spectrum colored lights move across the sky and from them emerges a white light.,us,5/29/2011,10/15/1992 22:00,few seconds,2,39.1619444,-84.4569444,light,oh
1890,nhlangano (swaziland),Strange light emmitting shpere in Africa with bright flashes.,,1/17/2004,10/15/1992 22:30,10 minutes,600,-27.116667,31.2,sphere,
1891,butte,A hovering object in the vicinity of &quot;The Lady of the Mountains&quot;.,us,10/31/2003,10/15/1993 00:00,30 secs,30,46.0038889,-112.5338889,sphere,mt
1892,sulphur,Two large black objects fly over town ... 0nly 4 people observed them .....,us,12/14/2004,10/15/1993 15:30,5 to 10 min.,600,30.2363889,-93.3772222,oval,la
1893,garden grove,A HUGE black retangular object. At least twice as big as a blimp even with it being about twice as high in the air. No lights. Seen jus,us,3/7/1998,10/15/1993 18:00,15 minutes,900,33.7738889,-117.94055559999998,rectangle,ca
1894,portsmouth,Strage lights over the river in NH,us,1/31/2004,10/15/1993 18:00,1 min,60,43.0716667,-70.7630556,light,nh
1895,owensboro,It moved back and forth up and down covering more miles in a split sec than anything man-made i have ever seen.,us,10/27/2004,10/15/1993 20:00,1 hour or longer,3600,37.7741667,-87.1133333,sphere,ky
1896,moss bluff,F-16s chase Disc object over Calcasieu River between Lake Charles and Moss Bluff,us,2/1/2007,10/15/1993 21:00,2 min,120,30.3025,-93.1905556,disk,la
1897,stone ridge,Sitting on bench at UCCC. Looked up to the West and saw an oval UFO. Closed my eyes because my mind could not believe what it was witne,us,9/2/2005,10/15/1994 13:00,30 seconds,30,41.8530556,-74.1394444,oval,ny
1898,circleville,Silver disc saucer hovers above town&#44 then disappears,us,5/15/2006,10/15/1994 14:00,30 seconds to one minute,60,39.6005556,-82.9461111,disk,oh
1899,bellevue,Former mil. officer (ret.) w/ son &amp; 4 others witnessed a very bright obj. in cloudless blue sky.  Alternated silver&#44 black&#44 then white.,us,11/2/1999,10/15/1994 16:25,25 min.,1500,47.6105556,-122.19944440000002,,wa
1900,ithaca,A bright object was seen from a far distance. It gave off a bright white light&#44 sometimes turning gold&#44 the it would turn red and green,us,11/19/1998,10/15/1994 18:00,3 hours,10800,42.4405556,-76.4969444,light,ny
1901,neah bay,Metallic sphere floats in the sky...,us,5/2/2011,10/15/1994 19:00,30 minutes,1800,48.3683333,-124.6236111,sphere,wa
1902,oxley,On the way to my grandfathers house myself and my father witnessed a red fireball hovering in the middle of the old gravel road we were,us,3/21/2014,10/15/1994 19:00,seconds,2,35.8422222,-92.4569444,fireball,ar
1903,angola,Designed like a spare tire&#44 dark back lit port blueish&#44 had been hiding in a forest .,us,3/31/2008,10/15/1994 21:00,2 to 3 minutes,180,41.6347222,-84.9994444,disk,in
1904,outside of delaware,Four UFOs and a mothership on tape,,10/30/2006,10/15/1994 21:00,21:00 to 23:00,7200,40.298672,-83.067965,teardrop,oh
1905,bry sur marne  (near paris) (france),Two red lights in the sky,,10/28/2002,10/15/1994 22:00,some minuts,120,48.834913,2.5236490000000003,,
1906,pittsburgh,It was a clear night in October&#44 about 1994.  I saw a bright white &#8220;star like&#8221; thing in the sky. It was NOT moving. I was facing down t,us,12/12/2009,10/15/1994 22:00,30 seconds,30,40.4405556,-79.9961111,light,pa
1907,molalla (near),black object in sky traveling above river&#44 circle of light appearing to come from it lighting up river in just that area of light,us,4/27/2004,10/15/1994 23:00,3 minutes,180,45.1475,-122.57583329999999,other,or
1908,marshall,Orange fiery disk flying at tree level,us,1/28/1999,10/15/1994 23:15,5 seconds,5,32.5447222,-94.3672222,disk,tx
1909,santee,A bright flourescent green light hovered between 2 houses then swiftly moved to left and then moved directly over us while we sat in ca,us,1/28/1999,10/15/1995 01:30,08 seconds,8,32.8383333,-116.97305559999998,light,ca
1910,fostoria,it was amazing the way they stood perfectly still and took off .,us,11/28/2007,10/15/1995 01:45,20 min,1200,41.1569444,-83.4169444,diamond,oh
1911,hawesville,Sightings of multiple craft disappearing and reappearing in sky&#44 possible abduction.,us,7/16/2006,10/15/1995 15:00,several minutes,120,37.9,-86.755,cigar,ky
1912,lawton,Silvery orb hiding behind  cloud&#33,us,5/14/2002,10/15/1995 15:00,2-3 minutes,180,34.6086111,-98.39,sphere,ok
1913,westminster,The low-hanging cloud looked too dense,us,4/16/2005,10/15/1995 17:30,3 minutes,180,34.6647222,-83.0966667,unknown,sc
1914,godfrey,Man &amp; 2 sons witness&#44 pursue in car&#44 strange obj. in rural area. Was size&#44 approx. color of moon. Odd shape&#44 haze. &quot;Winked out.&quot;,us,11/2/1999,10/15/1995 18:15,40 min,2400,38.9555556,-90.1866667,,il
1915,emporia,The light moved to me and then disapeared,us,2/18/2001,10/15/1995 20:15,10 min,600,36.6858333,-77.5427778,light,va
1916,kallangur (australia),UFO in kallangur,,12/9/2000,10/15/1995 21:00,5 minutes,300,-27.251405,152.991072,fireball,
1917,evansville,Bright Bold Primary Colored Lights in the Sky BUT no shape of a craft.,us,12/2/2000,10/15/1995 22:00,4 minutes,240,37.9747222,-87.5558333,unknown,in
1918,washington&#44 d.c.,Million Man March had visitors?,,1/20/2003,10/15/1995 22:00,10 minutes,600,38.907231,-77.036464,light,dc
1919,woodstock,Young couple witness large glowing craft streak across the night sky&#44 as if it were &quot;exiting&quot; the Earth. Craft was followed by a trail,us,2/22/2002,10/15/1995 22:15,5 seconds,5,41.9483333,-71.9744444,,ct
1920,split (in former yugoslavia),I was standing on the shore of the Adriatic Sea looking towrds Italy&#44 seen object go frm left to right&#44 approx  altitiude1000ft,,2/1/2007,10/15/1995 23:00,15 seconds,15,43.508132,16.440193,fireball,
1921,chatsworth,Moon size fireball flies over the San Fernando Valley Oct. 1995,us,10/30/2006,10/15/1995 23:30,5 sec,5,34.2572222,-118.60027779999999,fireball,ca
1922,san mateo,Silent  Close Range White Light seen on Highway 280 south of Highway 92. Witnessed by 3.,us,12/19/2003,10/15/1996 00:45,10 minutes,600,37.5630556,-122.32444440000002,light,ca
1923,austin,It was floating right above the tree tops over the houses about 75 feet from the tops os the houses.,us,4/15/2000,10/15/1996 03:00,5 minutes,300,30.2669444,-97.7427778,triangle,tx
1924,cazadero,You won&#39t believe what happened to ME&#33&#33&#33&#33,us,8/16/2002,10/15/1996 03:00,2 minutes,120,38.5333333,-123.08416670000001,unknown,ca
1925,delano,If you don&#39t believe in ufo&#39s you better keep your mind open and be prepared for the unexpected.,us,12/7/2006,10/15/1996 18:00,30 seconds,30,35.265,-84.55333329999999,other,tn
1926,roanoke,I saw a triangular craft with only red light from front to back on it. Craft stopped over my back yard and shone light down.,us,2/18/2001,10/15/1996 23:00,1 hour,3600,37.2708333,-79.9416667,triangle,va
1927,paris,blue ball of light subdues me and my girlfriend.,us,5/24/2005,10/15/1997 01:00,10 minutes,600,36.3019444,-88.3266667,light,tn
1928,duncan,This is what I can remember about my abduction.,us,1/28/1999,10/15/1997 02:15,05:15,315,34.5022222,-97.9575,unknown,ok
1929,atlanta (north of),A  blue grayish kind of light.,us,3/7/1998,10/15/1997 03:00,5 min,300,33.7488889,-84.3880556,light,ga
1930,brigham city (west of),VERY LARGE GLOWING OBJECT HOVERED TO THE WEST OF THE SALT LAKE DISAPERING AFTER ABOUT 3 MIN,us,9/6/2002,10/15/1997 03:00,3 min,180,41.5102778,-112.01472220000001,other,ut
1931,pasadena,it was a plasma craft . It looked just like the pics taken in mex of a plasma craft.,us,2/18/2001,10/15/1997 07:00,30 seconds,30,34.1477778,-118.1436111,oval,ca
1932,dallas,My friend and I were driving home from a date&#44 I opened the sunroof to view the moon lite sky.  As I was starring at the stars  somethi,us,6/2/1998,10/15/1997 10:00,5 minutes,300,32.7833333,-96.8,light,tx
1933,new york city (staten island),Metallic Cylinder Moving thru New York Harbor,us,2/14/2008,10/15/1997 15:00,2 minutes?,120,40.7141667,-74.0063889,cylinder,ny
1934,daggett,One very fast&#44 very low flying rectangular object changes direction&#44 stops&#44 then seperates into three equally fast smaller objects.,us,10/8/2007,10/15/1997 17:30,6-8 seconds.,8,34.8633333,-116.88722220000001,rectangle,ca
1935,abingdon,Bristol Herald Courier run on Thursday (10-16-97) the following day &quot;Unusual lights in sky over Mountain Empire generate speculation&quot;.,us,8/5/2001,10/15/1997 18:40,~10 minutes,600,36.7097222,-81.9775,light,va
1936,boulder,Saw 3 lights moving slowly over the foothills,us,11/17/1999,10/15/1997 19:00,5 min,300,40.015,-105.27,triangle,co
1937,shark river hills,I was walking my dog on a dark&#44 clear evening.  I sensed a weird feeling and looked up to the sky.  Above the tree tops&#44 I couldn&#39t mak,us,2/1/2007,10/15/1997 19:00,5 minutes,300,40.1938889,-74.0491667,triangle,nj
1938,austin/eureka (between&#44 hwy. 50),I was driving west on hyw 50 and saw 6 bright lights 3 on a ship&#44 and then they were gone&#33,,1/28/1999,10/15/1997 19:35,35 seconds,35,39.512151,-115.982003,light,nv
1939,bladen,ufos on the moon????,us,2/24/2001,10/15/1997 20:00,2 minutes,120,40.3222222,-98.5944444,sphere,ne
1940,rosburg,Triangular shaped object.,us,7/19/2010,10/15/1997 20:00,3-4 minutes,240,46.3311111,-123.63722220000001,triangle,wa
1941,westfeild,We were driving down the road. We saw it out of the window. we lost track of it and then saw it again whan we reached our destination.,,2/16/1999,10/15/1997 20:00,2-4 minutes,240,43.883595,-89.493439,light,wi
1942,harrodsburg,Iron-gridwork&#44 lightless&#44 silent UFO seen over central Kentucky.,us,12/16/2005,10/15/1997 20:15,45 seconds,45,37.7622222,-84.8433333,unknown,ky
1943,stephenville,Central Texas Sighting in Fall of 1997. Pulsing&#44 single craft at EXTREME SPEEDS.,us,1/3/2001,10/15/1997 20:45,10 minutes,600,32.2205556,-98.2019444,circle,tx
1944,waldorf,Three circular lights fuse into one and become an intensly bright beacon,us,4/27/2004,10/15/1997 21:30,7 minutes,420,38.6244444,-76.9394444,light,md
1945,alvarado,&quot;V&quot; Shaped craft over Night Sky in Alvarado TX. Oct. 1997,us,10/31/2003,10/15/1997 22:00,30 secs,30,32.4063889,-97.2113889,chevron,tx
1946,freeport,Two different reports of blinking light seen by same witness within a years time.,us,12/9/2000,10/15/1997 22:00,15 seconds,15,42.2966667,-89.6211111,flash,il
1947,st. louis,inside the house&#44 but could tell it was above us,us,4/26/2000,10/15/1997 22:00,1-minute+,60,38.6272222,-90.1977778,unknown,mo
1948,fort william (uk/scotland),UFO exploded in the West Highlands of Scotland..,,2/18/2001,10/15/1997 23:30,-30sec,30,56.819817,-5.105218,unknown,
1949,naalehu,It looked like a natural object (for a meteor) but it didn&#39t follow the laws of gravity,us,8/25/2000,10/15/1997 24:00,5 min.,300,19.0638889,-155.58583330000002,sphere,hi
1950,red bank,colorful  gaseous objects make unusual sounds and harass individual,us,12/23/2002,10/15/1998 01:00,2hrs,7200,33.9319444,-81.23861109999999,flash,sc
1951,round rock,On approx. 10/15/1998 @ 0130 .I went to my back patio for a cigarette. I was outside for at least 3 min. i know this because i was almo,us,8/30/1999,10/15/1998 01:30,15 seconds,15,30.5080556,-97.6786111,egg,tx
1952,houston,A small&#44 single fireball in the sky at an indeterminate altitude.,us,8/5/2001,10/15/1998 06:35,4 seconds,4,29.7630556,-95.3630556,fireball,tx
1953,knoxville,metallic cylinder hovering above city.,us,11/26/2003,10/15/1998 14:00,5 minutes,300,35.9605556,-83.9208333,cylinder,tn
1954,new albany,Objects Changed From Oval To FootBall Shape For An Hour,us,1/27/2005,10/15/1998 15:30,1 hour,3600,38.2855556,-85.8241667,changing,in
1955,winston-salem,silver-white sphere crossed sky in 12 sec.,us,11/1/1998,10/15/1998 16:01,12 sec,12,36.0997222,-80.2444444,sphere,nc
1956,glenwood,I am a college student and a mother of a 5 and 2 year old. I had come home from a long day at school and discovered I had to run into t,us,11/20/2002,10/15/1998 18:00,few seconds,2,34.3266667,-93.5505556,disk,ar
1957,warwick,Bright flat object moved upwards and disapeared behind cloads.,us,11/1/1998,10/15/1998 18:00,5min,300,41.7,-71.41666670000001,other,ri
1958,asheville,red drifting light about 50 degrees in the western sky slowly drifting up and to the north would get very bright then fade but not puls,us,1/7/2000,10/15/1998 19:00,30 mins,1800,35.6008333,-82.5541667,light,nc
1959,tyson&#39s corner,Very large and bright blue-green fireball witnessed while driving North-bound on I-495 (The Beltway).,,11/1/1998,10/15/1998 19:48,1 second,1,38.917488,-77.237997,fireball,va
1960,fort lawn,I&#39ve seen these craft for a few years now&#44 but only in cool/cold weather. They seem to have a leader&#44 a large orange ball of light with,,11/1/1998,10/15/1998 20:00,30 minutes,1800,34.702089,-80.894798,light,sc
1961,enterprise,Large black triangular ship seen near Enterprise&#44 Alabama.,us,2/1/2007,10/15/1998 21:00,15 minutes,900,31.315,-85.8552778,triangle,al
1962,laguna niguel,Bouncing orange lights in night sky.,us,9/13/2002,10/15/1998 21:15,1 minute,60,33.5225,-117.70666670000001,unknown,ca
1963,westlake,Witnessed flyby by a craft composed of six perfectly round&#44 bright lights.,us,1/28/1999,10/15/1998 21:15,60 seconds,60,41.4552778,-81.9180556,light,oh
1964,hinton,Single light travelling at high rate of speed&#44 radically changed course numerous times.  Stayed in same area for entire time&#44 orbiting,us,6/6/2000,10/15/1998 22:00,15 minutes,900,37.6738889,-80.8894444,light,wv
1965,dublin (south of),One diamond shaped aircraft in the sky west of Richmond&#44Indiana flying from the SE to the NW in October&#44 1998.,us,1/17/2004,10/15/1998 22:30,1 minute,60,39.8122222,-85.2088889,diamond,in
1966,port washington,Craft a cross between Triangle/Chevron/Arrowhead/Diamond; clear&#44 starry night; witnessed what I believe to be: quiet&#44 low humming craft,us,1/22/2000,10/15/1998 22:35,1-2 minutes,120,43.3872222,-87.8755556,triangle,wi
1967,dallas,An UFO staying on the skjy with half red and half orange.,us,1/27/2005,10/15/1998 23:00,10 seconds,10,32.7833333,-96.8,disk,tx
1968,inverness (uk/scotland),Four bright white lights moving in a row,gb,12/12/2009,10/15/1999 02:00,3 minutes,180,57.466667,-4.233333,formation,
1969,lexington,A 2 hour sighting of fireball with orbiting mini fireballs and an array of white dots in the sky with unusual movements,us,3/4/2008,10/15/1999 02:00,2hrs,7200,42.4472222,-71.225,fireball,ma
1970,columbia (east of&#44 near little dixie conservation area),My friend and I were out looking for shooting stars on a country road when this large unknown object flew over us.  It was a large tria,us,9/19/2002,10/15/1999 02:30,one minute,60,38.9516667,-92.3338889,triangle,mo
1971,clines corners (i-40 eastbound),Was traveling eastbound on I-40 in New Mexico around 3:00am. Noticed to the southwest and southeast numerous flashing bright blue light,us,9/19/2002,10/15/1999 03:00,20:00,1200,35.0094444,-105.6686111,light,nm
1972,conconully (conconully lake),A very bright light shined through the window of cabin and with spotting scope and binoculars a father and son saw a bright light with,us,9/19/2002,10/15/1999 03:00,maybe 30 min.,1800,48.5575,-119.7486111,light,wa
1973,ritzville/cheney (between),i am a truck driver and it was 3 in the morning i was going westbound it came from my left to the right at a very hi rate of speed but,,2/16/2000,10/15/1999 03:00,15 to 30 sec,30,47.48739,-117.57576200000001,triangle,wa
1974,millersburg,i&#39ve already submitted a report&#44 i had the wrong date&#33,us,12/16/1999,10/15/1999 04:30,2-3 minutes,180,38.8986111,-92.1233333,triangle,mo
1975,holden,Very bright oval object that appeared to resemble a star approx. 5 am in the morning.  It has been visible in the morning for 3 days no,us,10/19/1999,10/15/1999 05:00,1 hour,3600,42.3516667,-71.8638889,oval,ma
1976,lewistown,Colour shift= green->blue->yellow->metalic white. Slow movement to west&#44 then east&#44 then high velocity NNW.,us,11/9/1999,10/15/1999 06:01,3 min,180,40.0861111,-91.8130556,light,mo
1977,fairfield,spotted light moving through the sky at high rate of speed.  Thought to be a plane or helicopter but too fast for helicopter and han on,us,11/2/1999,10/15/1999 08:00,30 min,1800,44.5883333,-69.5991667,light,me
1978,old westbury,I was home in my room and looked out my window to see this very large&#44 white object gliding across the sky going west to south-east. It,us,10/19/1999,10/15/1999 12:30,@ 3-4 minutes,240,40.7886111,-73.6,disk,ny
1979,yangtzee river (china),LOOKED LIKE THE REAL THING,,1/10/2009,10/15/1999 14:00,30 minutes,1800,31.84694,120.87286200000001,disk,
1980,fremont,A huge diamond shaped mirrored surfaced&#44 revolving object moving across the sky in mid afternoon.,us,4/27/2004,10/15/1999 14:30,3 minutes,180,41.7308333,-84.9327778,diamond,in
1981,sierra vista,a bright white light turned into a floating disk for 2min.than turned back into white light and zipped away.,us,6/3/2010,10/15/1999 18:00,2min,120,31.5544444,-110.3030556,circle,az
1982,taylor,I was walking towards what used to be Marshall&#39s at the back entrance of the Southland Mall in Taylor&#44 Mi.  As I walked toward the buil,us,4/13/2010,10/15/1999 18:30,20 seconds,20,42.2408333,-83.2697222,sphere,mi
1983,kansas city,MISSOURI INVESTIGATORS GROUP Report:  I was looking to my left when I spotted a white light about 9 o&#39clock high,us,10/31/2003,10/15/1999 19:00,3-5 minutes,300,39.0997222,-94.5783333,other,mo
1984,newbern,amber colored light&#44moves slowly&#44 occasionally disappears in plain view,us,4/1/2000,10/15/1999 19:20,2 min.,120,36.1127778,-89.2616667,light,tn
1985,mississauga (canada),Was outside taking a coffee break and notice three what i first thought was three fighters flying in formation&#44 but there was no engine,ca,12/2/2000,10/15/1999 19:30,3 seconds,3,43.15,-79.5,triangle,on
1986,breckenridge,Craft came over on a dark but clear night.It was moving south east to north west.The craft was a vee shape but not the sahpe of the,us,1/11/2002,10/15/1999 20:00,2-3min,180,32.7555556,-98.9019444,other,tx
1987,montreal (canada),UFO&#39s sighted over Montreal&#44 Quebec&#44 November&#44 1999.,ca,5/14/2002,10/15/1999 20:15,15 min,900,45.5,-73.583333,,pq
1988,seattle,4 lights in chevron-shape&#44 crossed north t south on clear night sky.  Lost sight of&#44 then shape came back south to north&#44 very fast.,us,10/19/1999,10/15/1999 20:15,1 minute,60,47.6063889,-122.33083329999998,chevron,wa
1989,ellis,first seen as possible meteor&#44 then fireball&#44 then satellite like moving south. i witnessed it turn a 180% turn&#44 stop&#44 then move in sev,us,10/19/1999,10/15/1999 20:30,10 minutes,600,38.9380556,-99.5602778,light,ks
1990,ellis,UFO shased off by fighter jets,us,1/17/2004,10/15/1999 20:30,5-8 minutes,480,38.9380556,-99.5602778,oval,ks
1991,yerington,Chevron or V-shaped object with five large circular lights on the bottom&#44 very fast.,us,12/23/2002,10/15/1999 20:30,less than 10 seconds,10,38.9858333,-119.16194440000001,chevron,nv
1992,phoenix,Three Bright Orange Orbs large in size,us,12/2/2000,10/15/1999 21:00,usually 2 hours,7200,33.4483333,-112.07333329999999,sphere,az
1993,buffalo,Black triangle with the orange lights at each corner,us,10/8/2007,10/15/1999 23:00,30 seconds,30,42.8863889,-78.87861109999999,triangle,ny
1994,copeville,Triangular shaped&#44 green lights&#44 seen when investigating why dog was whining. Missing time later.,us,10/19/1999,10/15/1999 23:00,30 seconds,30,33.0794444,-96.4152778,triangle,tx
1995,stockbridge,green lights in triangle pattern hovering above trees and strange dreams for 2 months after.,us,2/8/2005,10/15/1999 23:00,1 minute,60,33.5441667,-84.23388890000001,triangle,ga
1996,geyserville,Some sort of stealth helicopter like object with hardly any sound flew right over my friend and I.,us,7/16/2003,10/15/1999 23:30,5 minutes,300,38.7077778,-122.9013889,unknown,ca
1997,sheffield (uk/england),THE UFO,gb,4/1/2001,10/15/1999 24:00,only a few minutes,120,53.366667,-1.5,triangle,
1998,weed/yreka (near),Fall 1999 sighting of green and gold fireballs in N California,,1/31/2004,10/15/1999 24:00,< 3   min,180,41.858898,-122.553076,fireball,ca
2283,winnipeg (canada),Triangular shape lands in a manitoban field.  ((NUFORC Note:  Possibly not a serious report.  PD)),ca,5/11/2005,10/16/1988 00:34,20 minutes,1200,49.883333,-97.166667,triangle,mb
2284,philadelphia,Oval shaped moon colored object that darts in and out of the clouds above my house&#44,us,1/10/2009,10/16/1988 09:30,1 hour,3600,39.9522222,-75.1641667,oval,pa
2285,tucson,giant ball of fire seen over tucson hour after dark around 1989,us,7/16/2006,10/16/1989 08:00,2-3 seconds,3,32.2216667,-110.9258333,sphere,az
2286,pittsburgh,Bright light on small disc craft January &amp; October 1992 Bates &amp; McKee Pittsburgh&#44 PA,us,4/18/2012,10/16/1992 23:00,2 minutes,120,40.4405556,-79.9961111,disk,pa
2287,scofield barracks,Soldier reports seeing a &quot;stationary obj. to S&#44 w/ red &amp; blue flashing lights.&quot;  Still clearly visible even after sun has risen.,,11/2/1999,10/16/1995 05:57,30 min.,1800,21.495496,-158.062655,,hi
2288,jacksonville,Metallic Sphere Scans My Entire Body,us,8/5/2001,10/16/1997 01:30,10 minutes,600,30.3319444,-81.6558333,sphere,fl
2289,hickory,I was outside when I saw a red &quot;fireball&quot; moving in an oval pattern.,us,6/23/1999,10/16/1997 05:34,3minutes,180,35.7330556,-81.34138890000001,fireball,nc
2290,rooseville,I was coming down the I94West ramp onto the freeway&#44 when I was eye level with the sky&#44 I looked at the clouds and there was a light as,,1/11/2002,10/16/1997 08:00,1 minute,60,42.497258,-82.937141,light,mi
2291,hollister,Very dim light&#44 extreme altatude&#44 traveling from Pacific easterly aprox. over San Jose or S.F.&#44 dramatic turn to south/east toward Araz,us,1/28/1999,10/16/1997 19:05,40 seconds,40,36.8525,-121.40055559999999,light,ca
2292,sacramento,observed v shaped object with lights and no noise in the sky traveling slowly at night,us,10/31/2008,10/16/1998 11:40,5 minutes,300,38.5816667,-121.49333329999999,triangle,ca
2293,baker/stateline (between),A watery ripple in the sky like a ribbon flapping in the wind&#44 then forming the shape of a craft (see below),,1/28/1999,10/16/1998 16:30,5 to 8 seconds,8,35.691188,-115.49790800000001,changing,ca
2294,breckenridge,On about this time my wife and I saw a V shaped object fly over our house. It was NOT the shape of the Stelth bomber. It was a 90 degre,us,9/15/2005,10/16/1998 20:00,2 minutes,120,32.7555556,-98.9019444,other,tx
2295,middletown,The object was traveling at a very high altitude&#44 at first glance I thought it might be a sattelite&#44 but it made a few stops&#44 then a dr,us,11/1/1998,10/16/1998 20:00,15 minutes,900,41.5622222,-72.6511111,unknown,ct
2296,salem,My husband and I were traveling south on I-5 north of Salem when a huge bright light appeared ahead of us mid-sky.  It seemed to be ove,us,1/28/1999,10/16/1998 21:30,10 sec,10,44.9430556,-123.0338889,light,or
2297,carbondale,I saw a spherical object at a distance.  It had a slight green glow.  It just appeared&#44 then took off in a northeast direction very qui,us,11/1/1998,10/16/1998 21:55,5 seconds,5,37.7272222,-89.2166667,sphere,il
2298,ronan/polson (lake county),Two large craft stationery @ 20000 feet above sea level,,11/19/1998,10/16/1998 24:00,3 hours,10800,47.692526,-114.16578100000001,disk,mt
2299,conway (at salltillo heights community),we saw a hot blue orb looking object big as a house fall from the sky.,us,9/19/2002,10/16/1999 00:05,1 minute,60,35.0886111,-92.4419444,sphere,ar
2300,redwood shores,I believe that this is the same object as seen in this sighting on the data base Occurred : 10/16/1999 19:00 (Entered as : 10/16/99 19:,us,2/18/2001,10/16/1999 18:30,30+ mins,1800,37.5319444,-122.24694440000002,other,ca
2301,san mateo,The object was in the northern sky for approximately 1.5 hours on the evening of 10/16/99.  It was saucer-like shape with a very bright,us,10/19/1999,10/16/1999 19:00,1.3,90,37.5630556,-122.32444440000002,disk,ca
2302,chattanooga,I witnessed 3 low-flying&#44 triangular-shaped&#44 black crafts traveling to the north&#44 northwest on Saturday 16&#44 1999.,us,2/18/2001,10/16/1999 21:35,2-3 minutes,180,35.0455556,-85.30972220000001,triangle,tn
2303,danville,Blue lights&#44 white lights&#44 and red lights.  Moving sporadically and toward each other.  Then they would hover.  One actually flew over,us,11/17/1999,10/16/1999 22:00,2 hours,7200,37.6455556,-84.7722222,light,ky
2304,the colony,Streaking light seen overhead. Went from a standstill(hover?) position and then streaked off in a flash.,us,11/17/1999,10/16/1999 22:00,15 seconds,15,33.0888889,-96.8861111,triangle,tx
2305,houston,Flying object similar to blimp shaped like rounded football&#44 illuminated from within.,us,10/19/1999,10/16/1999 22:15,20 seconds,20,29.7630556,-95.3630556,oval,tx
2306,chatsworth (fort mountain),MUFON/GEORGIA FOLLOW-UP REPORT:  Glowing orange sphere changes size during hover.,us,11/17/1999,10/16/1999 22:30,5 seconds,5,34.7658333,-84.77,sphere,ga
2487,eglin afb,My father and I witnessed a  UFO at Eglin AFB.,,11/28/2007,10/17/1986 17:00,3 minutes,180,30.463558,-86.553338,disk,fl
2488,bartlesville,On a fall evening&#44 after returning from a scout meeting I witnessed a object perform some extreemly unusual aerial feats&#44 at at least p,us,5/24/1999,10/17/1986 18:00,6-10 minutes,600,36.7472222,-95.9805556,other,ok
2489,tinker afb,5 chevron shaped craft glowing gold flew over tinker airforcebase in oklahoma,,11/28/2007,10/17/1988 03:30,5 min,300,35.417523,-97.387416,chevron,ok
2490,charlotte,It was green&#44 floated in the air and landed about a houndred yards away from me. I tried to duck down. I sat there staring at it for ab,us,5/11/2005,10/17/1988 23:00,10 min,600,42.5636111,-84.8358333,triangle,mi
2491,san jose,Post earthquake flying Triangle gave us a quick visit.,us,9/9/2004,10/17/1989 21:00,10 sec,10,37.3394444,-121.8938889,triangle,ca
2492,san jose,A bright flash illuminated a third of the sky originating from a point like a star.,us,1/11/2002,10/17/1989 22:30,5 seconds,5,37.3394444,-121.8938889,flash,ca
2493,flagler beach,A silent triangle close enough to hit with a thrown object,us,9/15/2005,10/17/1990 01:30,10 min,600,29.4747222,-81.1272222,triangle,fl
2494,lihue,Hello Mr. Davenport&#44  I&#39m about to share something with you that happened quite a while ago but yet I have never reported this story wi,us,9/24/2012,10/17/1993 18:00,aprox 60 to 90 mins,5400,21.9811111,-159.3711111,disk,hi
2495,kannapolis,brilliant light coming and going,us,2/8/2005,10/17/1994 10:35,20 seconds,20,35.4872222,-80.6219444,light,nc
2496,berkshire,V shaped light formation traveling in a south-west to north-east between Binghamton and Ithaca&#44 NY,us,11/4/2002,10/17/1994 21:30,5-10 minutes,600,42.3041667,-76.1869444,triangle,ny
2497,brooksville,flying fireball streaked past my grandmothers house in the woods 20 feet off the ground moving near 65 mph.,us,8/11/2004,10/17/1995 01:00,5 seconds,5,28.555,-82.3880556,fireball,fl
